<?xml version="1.0" encoding="UTF-8"?>
<kml xmlns="http://www.opengis.net/kml/2.2" xmlns:gx="http://www.google.com/kml/ext/2.2" xmlns:kml="http://www.opengis.net/kml/2.2" xmlns:atom="http://www.w3.org/2005/Atom">
<Folder>
	<name>County Courthouses</name>
	<Document>
		<name>MS</name>
		<Style id="default1">
			<IconStyle>
				<scale>1.2</scale>
				<Icon>
					<href>http://maps.google.com/mapfiles/kml/shapes/placemark_circle.png</href>
				</Icon>
			</IconStyle>
		</Style>
		<Style id="hl00">
			<IconStyle>
				<scale>1.2</scale>
				<Icon>
					<href>http://maps.google.com/mapfiles/kml/shapes/placemark_circle_highlight.png</href>
				</Icon>
			</IconStyle>
		</Style>
		<StyleMap id="default000">
			<Pair>
				<key>normal</key>
				<styleUrl>#default1</styleUrl>
			</Pair>
			<Pair>
				<key>highlight</key>
				<styleUrl>#hl00</styleUrl>
			</Pair>
		</StyleMap>
		<Placemark>
			<name>Adams</name>
			<styleUrl>#default000</styleUrl>
			<Point>
				<coordinates>-91.4045599,31.5602905,0</coordinates>
			</Point>
		</Placemark>
		<Placemark>
			<name>Alcorn</name>
			<styleUrl>#default000</styleUrl>
			<Point>
				<coordinates>-88.51900140000001,34.93509539999999,0</coordinates>
			</Point>
		</Placemark>
		<Placemark>
			<name>Amite</name>
			<styleUrl>#default000</styleUrl>
			<Point>
				<coordinates>-90.810678,31.1576773,0</coordinates>
			</Point>
		</Placemark>
		<Placemark>
			<name>Attalla</name>
			<styleUrl>#default000</styleUrl>
			<Point>
				<coordinates>-89.5917274,33.05868389999999,0</coordinates>
			</Point>
		</Placemark>
		<Placemark>
			<name>Benton</name>
			<styleUrl>#default000</styleUrl>
			<Point>
				<coordinates>-89.18407240000001,34.833419,0</coordinates>
			</Point>
		</Placemark>
		<Placemark>
			<name>Bolivar</name>
			<styleUrl>#default000</styleUrl>
			<Point>
				<coordinates>-90.7241535,33.74397189999999,0</coordinates>
			</Point>
		</Placemark>
		<Placemark>
			<name>Calhoun</name>
			<styleUrl>#default000</styleUrl>
			<Point>
				<coordinates>-89.33804959999999,33.93955100000001,0</coordinates>
			</Point>
		</Placemark>
		<Placemark>
			<name>Carroll</name>
			<styleUrl>#default000</styleUrl>
			<Point>
				<coordinates>-89.7409054,33.3316885,0</coordinates>
			</Point>
		</Placemark>
		<Placemark>
			<name>Chickasaw</name>
			<styleUrl>#default000</styleUrl>
			<Point>
				<coordinates>-88.99922670000001,33.89844609999999,0</coordinates>
			</Point>
		</Placemark>
		<Placemark>
			<name>Choctaw</name>
			<styleUrl>#default000</styleUrl>
			<Point>
				<coordinates>-89.17273999999999,33.30918130000001,0</coordinates>
			</Point>
		</Placemark>
		<Placemark>
			<name>Claiborne</name>
			<styleUrl>#default000</styleUrl>
			<Point>
				<coordinates>-90.98346579999999,31.963119,0</coordinates>
			</Point>
		</Placemark>
		<Placemark>
			<name>Clarke</name>
			<styleUrl>#default000</styleUrl>
			<Point>
				<coordinates>-88.72733479999999,32.0400864,0</coordinates>
			</Point>
		</Placemark>
		<Placemark>
			<name>Clay</name>
			<styleUrl>#default000</styleUrl>
			<Point>
				<coordinates>-88.6527289,33.6045302,0</coordinates>
			</Point>
		</Placemark>
		<Placemark>
			<name>Coahoma</name>
			<styleUrl>#default000</styleUrl>
			<Point>
				<coordinates>-90.57487479999999,34.2045559,0</coordinates>
			</Point>
		</Placemark>
		<Placemark>
			<name>Copiah</name>
			<styleUrl>#default000</styleUrl>
			<Point>
				<coordinates>-90.39440929999999,31.85906229999999,0</coordinates>
			</Point>
		</Placemark>
		<Placemark>
			<name>Covington</name>
			<styleUrl>#default000</styleUrl>
			<Point>
				<coordinates>-89.5566171,31.6436639,0</coordinates>
			</Point>
		</Placemark>
		<Placemark>
			<name>DeSoto</name>
			<styleUrl>#default000</styleUrl>
			<Point>
				<coordinates>-89.99487099999999,34.8230227,0</coordinates>
			</Point>
		</Placemark>
		<Placemark>
			<name>Forrest</name>
			<styleUrl>#default000</styleUrl>
			<Point>
				<coordinates>-89.2911386,31.3279874,0</coordinates>
			</Point>
		</Placemark>
		<Placemark>
			<name>Franklin</name>
			<styleUrl>#default000</styleUrl>
			<Point>
				<coordinates>-90.90650059999999,31.4651914,0</coordinates>
			</Point>
		</Placemark>
		<Placemark>
			<name>George</name>
			<styleUrl>#default000</styleUrl>
			<Point>
				<coordinates>-88.5900168,30.9238354,0</coordinates>
			</Point>
		</Placemark>
		<Placemark>
			<name>Greene</name>
			<styleUrl>#default000</styleUrl>
			<Point>
				<coordinates>-88.667834,31.074916,0</coordinates>
			</Point>
		</Placemark>
		<Placemark>
			<name>Grenada</name>
			<styleUrl>#default000</styleUrl>
			<Point>
				<coordinates>-89.8033612,33.7852323,0</coordinates>
			</Point>
		</Placemark>
		<Placemark>
			<name>Hancock</name>
			<styleUrl>#default000</styleUrl>
			<Point>
				<coordinates>-89.47645709999999,30.3027632,0</coordinates>
			</Point>
		</Placemark>
		<Placemark>
			<name>Harrison</name>
			<styleUrl>#default000</styleUrl>
			<Point>
				<coordinates>-89.0918054,30.371782,0</coordinates>
			</Point>
		</Placemark>
		<Placemark>
			<name>Hinds</name>
			<styleUrl>#default000</styleUrl>
			<Point>
				<coordinates>-90.182788,32.2968784,0</coordinates>
			</Point>
		</Placemark>
		<Placemark>
			<name>Holmes</name>
			<styleUrl>#default000</styleUrl>
			<Point>
				<coordinates>-90.0521,33.11280000000001,0</coordinates>
			</Point>
		</Placemark>
		<Placemark>
			<name>Humphreys</name>
			<styleUrl>#default000</styleUrl>
			<Point>
				<coordinates>-90.4887311,33.1760245,0</coordinates>
			</Point>
		</Placemark>
		<Placemark>
			<name>Issaquena</name>
			<styleUrl>#default000</styleUrl>
			<Point>
				<coordinates>-91.0512274,32.90189600000001,0</coordinates>
			</Point>
		</Placemark>
		<Placemark>
			<name>Itawamba</name>
			<styleUrl>#default000</styleUrl>
			<Point>
				<coordinates>-88.40821679999999,34.2735362,0</coordinates>
			</Point>
		</Placemark>
		<Placemark>
			<name>Jackson</name>
			<styleUrl>#default000</styleUrl>
			<Point>
				<coordinates>-88.55851899999999,30.3655674,0</coordinates>
			</Point>
		</Placemark>
		<Placemark>
			<name>Jasper</name>
			<styleUrl>#default000</styleUrl>
			<Point>
				<coordinates>-89.29061589999999,31.9743514,0</coordinates>
			</Point>
		</Placemark>
		<Placemark>
			<name>Jefferson</name>
			<styleUrl>#default000</styleUrl>
			<Point>
				<coordinates>-91.05887199999998,31.72432589999999,0</coordinates>
			</Point>
		</Placemark>
		<Placemark>
			<name>Jefferson Davis</name>
			<styleUrl>#default000</styleUrl>
			<Point>
				<coordinates>-89.8651811,31.6018905,0</coordinates>
			</Point>
		</Placemark>
		<Placemark>
			<name>Jones</name>
			<styleUrl>#default000</styleUrl>
			<Point>
				<coordinates>-89.13057359999999,31.69426510000001,0</coordinates>
			</Point>
		</Placemark>
		<Placemark>
			<name>Kemper</name>
			<styleUrl>#default000</styleUrl>
			<Point>
				<coordinates>-88.65140269999999,32.7757563,0</coordinates>
			</Point>
		</Placemark>
		<Placemark>
			<name>Lafayette</name>
			<styleUrl>#default000</styleUrl>
			<Point>
				<coordinates>-89.5180838,34.3676558,0</coordinates>
			</Point>
		</Placemark>
		<Placemark>
			<name>Lamar</name>
			<styleUrl>#default000</styleUrl>
			<Point>
				<coordinates>-89.41319969999999,31.1443236,0</coordinates>
			</Point>
		</Placemark>
		<Placemark>
			<name>Lauderdale</name>
			<styleUrl>#default000</styleUrl>
			<Point>
				<coordinates>-88.69864419999999,32.3651141,0</coordinates>
			</Point>
		</Placemark>
		<Placemark>
			<name>Lawrence</name>
			<styleUrl>#default000</styleUrl>
			<Point>
				<coordinates>-90.10475199999999,31.554773,0</coordinates>
			</Point>
		</Placemark>
		<Placemark>
			<name>Leake</name>
			<styleUrl>#default000</styleUrl>
			<Point>
				<coordinates>-89.533912,32.7373509,0</coordinates>
			</Point>
		</Placemark>
		<Placemark>
			<name>Lee</name>
			<styleUrl>#default000</styleUrl>
			<Point>
				<coordinates>-88.70580989999999,34.2603135,0</coordinates>
			</Point>
		</Placemark>
		<Placemark>
			<name>Leflore</name>
			<styleUrl>#default000</styleUrl>
			<Point>
				<coordinates>-90.18393639999999,33.5202384,0</coordinates>
			</Point>
		</Placemark>
		<Placemark>
			<name>Lincoln</name>
			<styleUrl>#default000</styleUrl>
			<Point>
				<coordinates>-90.4412839,31.5764921,0</coordinates>
			</Point>
		</Placemark>
		<Placemark>
			<name>Lowndes</name>
			<styleUrl>#default000</styleUrl>
			<Point>
				<coordinates>-88.4278837,33.49675380000001,0</coordinates>
			</Point>
		</Placemark>
		<Placemark>
			<name>Madison</name>
			<styleUrl>#default000</styleUrl>
			<Point>
				<coordinates>-90.0444419,32.5878838,0</coordinates>
			</Point>
		</Placemark>
		<Placemark>
			<name>Marion</name>
			<styleUrl>#default000</styleUrl>
			<Point>
				<coordinates>-89.83329999999999,31.25080000000001,0</coordinates>
			</Point>
		</Placemark>
		<Placemark>
			<name>Marshall</name>
			<styleUrl>#default000</styleUrl>
			<Point>
				<coordinates>-89.4479169,34.7680265,0</coordinates>
			</Point>
		</Placemark>
		<Placemark>
			<name>Monroe</name>
			<styleUrl>#default000</styleUrl>
			<Point>
				<coordinates>-88.5409933,33.82191660000001,0</coordinates>
			</Point>
		</Placemark>
		<Placemark>
			<name>Montgomery</name>
			<styleUrl>#default000</styleUrl>
			<Point>
				<coordinates>-89.7380017,33.4828796,0</coordinates>
			</Point>
		</Placemark>
		<Placemark>
			<name>Neshoba</name>
			<styleUrl>#default000</styleUrl>
			<Point>
				<coordinates>-89.1108883,32.7708935,0</coordinates>
			</Point>
		</Placemark>
		<Placemark>
			<name>Newton</name>
			<styleUrl>#default000</styleUrl>
			<Point>
				<coordinates>-89.1083848,32.4387923,0</coordinates>
			</Point>
		</Placemark>
		<Placemark>
			<name>Noxubee</name>
			<styleUrl>#default000</styleUrl>
			<Point>
				<coordinates>-88.5606847,33.1057051,0</coordinates>
			</Point>
		</Placemark>
		<Placemark>
			<name>Oktibbeha</name>
			<styleUrl>#default000</styleUrl>
			<Point>
				<coordinates>-88.8162787,33.4641103,0</coordinates>
			</Point>
		</Placemark>
		<Placemark>
			<name>Panola</name>
			<styleUrl>#default000</styleUrl>
			<Point>
				<coordinates>-89.91872429999999,34.4341802,0</coordinates>
			</Point>
		</Placemark>
		<Placemark>
			<name>Pearl River</name>
			<styleUrl>#default000</styleUrl>
			<Point>
				<coordinates>-89.53586000000001,30.8432775,0</coordinates>
			</Point>
		</Placemark>
		<Placemark>
			<name>Perry</name>
			<styleUrl>#default000</styleUrl>
			<Point>
				<coordinates>-89.0351409,31.2039567,0</coordinates>
			</Point>
		</Placemark>
		<Placemark>
			<name>Pike</name>
			<styleUrl>#default000</styleUrl>
			<Point>
				<coordinates>-90.45335109999998,31.1736536,0</coordinates>
			</Point>
		</Placemark>
		<Placemark>
			<name>Pontotoc</name>
			<styleUrl>#default000</styleUrl>
			<Point>
				<coordinates>-88.99806599999999,34.247131,0</coordinates>
			</Point>
		</Placemark>
		<Placemark>
			<name>Prentiss</name>
			<styleUrl>#default000</styleUrl>
			<Point>
				<coordinates>-88.53419149999999,34.6588825,0</coordinates>
			</Point>
		</Placemark>
		<Placemark>
			<name>Quitman</name>
			<styleUrl>#default000</styleUrl>
			<Point>
				<coordinates>-90.26970650000001,34.2592761,0</coordinates>
			</Point>
		</Placemark>
		<Placemark>
			<name>Rankin</name>
			<styleUrl>#default000</styleUrl>
			<Point>
				<coordinates>-89.98625509999999,32.2732245,0</coordinates>
			</Point>
		</Placemark>
		<Placemark>
			<name>Scott</name>
			<styleUrl>#default000</styleUrl>
			<Point>
				<coordinates>-89.47422189999999,32.3628487,0</coordinates>
			</Point>
		</Placemark>
		<Placemark>
			<name>Sharkey</name>
			<styleUrl>#default000</styleUrl>
			<Point>
				<coordinates>-90.87716809999999,32.90788490000001,0</coordinates>
			</Point>
		</Placemark>
		<Placemark>
			<name>Simpson</name>
			<styleUrl>#default000</styleUrl>
			<Point>
				<coordinates>-89.8606669,31.9595408,0</coordinates>
			</Point>
		</Placemark>
		<Placemark>
			<name>Smith</name>
			<styleUrl>#default000</styleUrl>
			<Point>
				<coordinates>-89.5231211,32.03417369999999,0</coordinates>
			</Point>
		</Placemark>
		<Placemark>
			<name>Stone</name>
			<styleUrl>#default000</styleUrl>
			<Point>
				<coordinates>-89.13546529999999,30.8567261,0</coordinates>
			</Point>
		</Placemark>
		<Placemark>
			<name>Sunflower</name>
			<styleUrl>#default000</styleUrl>
			<Point>
				<coordinates>-90.64998339999998,33.4516069,0</coordinates>
			</Point>
		</Placemark>
		<Placemark>
			<name>Tallahatchie</name>
			<styleUrl>#default000</styleUrl>
			<Point>
				<coordinates>-90.36980950000002,33.9704438,0</coordinates>
			</Point>
		</Placemark>
		<Placemark>
			<name>Tate</name>
			<styleUrl>#default000</styleUrl>
			<Point>
				<coordinates>-89.96604719999999,34.616807,0</coordinates>
			</Point>
		</Placemark>
		<Placemark>
			<name>Tippah</name>
			<styleUrl>#default000</styleUrl>
			<Point>
				<coordinates>-88.9490997,34.7303771,0</coordinates>
			</Point>
		</Placemark>
		<Placemark>
			<name>Tishomingo</name>
			<styleUrl>#default000</styleUrl>
			<Point>
				<coordinates>-88.2020909,34.8054958,0</coordinates>
			</Point>
		</Placemark>
		<Placemark>
			<name>Tunica</name>
			<styleUrl>#default000</styleUrl>
			<Point>
				<coordinates>-90.38432619999999,34.69984460000001,0</coordinates>
			</Point>
		</Placemark>
		<Placemark>
			<name>Union</name>
			<styleUrl>#default000</styleUrl>
			<Point>
				<coordinates>-89.0074846,34.4926256,0</coordinates>
			</Point>
		</Placemark>
		<Placemark>
			<name>Walthall</name>
			<styleUrl>#default000</styleUrl>
			<Point>
				<coordinates>-90.1414101,31.11698519999999,0</coordinates>
			</Point>
		</Placemark>
		<Placemark>
			<name>Warren</name>
			<styleUrl>#default000</styleUrl>
			<Point>
				<coordinates>-90.8777698,32.3520913,0</coordinates>
			</Point>
		</Placemark>
		<Placemark>
			<name>Washington</name>
			<styleUrl>#default000</styleUrl>
			<Point>
				<coordinates>-91.05242869999999,33.4090387,0</coordinates>
			</Point>
		</Placemark>
		<Placemark>
			<name>Wayne</name>
			<styleUrl>#default000</styleUrl>
			<Point>
				<coordinates>-88.64862189999999,31.6748402,0</coordinates>
			</Point>
		</Placemark>
		<Placemark>
			<name>Webster</name>
			<styleUrl>#default000</styleUrl>
			<Point>
				<coordinates>-89.2684903,33.5419999,0</coordinates>
			</Point>
		</Placemark>
		<Placemark>
			<name>Wilkinson</name>
			<styleUrl>#default000</styleUrl>
			<Point>
				<coordinates>-91.28174959999998,31.12133609999999,0</coordinates>
			</Point>
		</Placemark>
		<Placemark>
			<name>Winston</name>
			<styleUrl>#default000</styleUrl>
			<Point>
				<coordinates>-89.0544484,33.1233479,0</coordinates>
			</Point>
		</Placemark>
		<Placemark>
			<name>Yalobusha</name>
			<styleUrl>#default000</styleUrl>
			<Point>
				<coordinates>-89.629042,34.149703,0</coordinates>
			</Point>
		</Placemark>
		<Placemark>
			<name>Yazoo</name>
			<styleUrl>#default000</styleUrl>
			<Point>
				<coordinates>-90.4119973,32.846671,0</coordinates>
			</Point>
		</Placemark>
	</Document>
	<Document>
		<name>ID</name>
		<Style id="default3">
			<IconStyle>
				<scale>1.2</scale>
				<Icon>
					<href>http://maps.google.com/mapfiles/kml/shapes/placemark_circle.png</href>
				</Icon>
			</IconStyle>
		</Style>
		<Style id="hl10">
			<IconStyle>
				<scale>1.2</scale>
				<Icon>
					<href>http://maps.google.com/mapfiles/kml/shapes/placemark_circle_highlight.png</href>
				</Icon>
			</IconStyle>
		</Style>
		<StyleMap id="default010">
			<Pair>
				<key>normal</key>
				<styleUrl>#default2</styleUrl>
			</Pair>
			<Pair>
				<key>highlight</key>
				<styleUrl>#hl10</styleUrl>
			</Pair>
		</StyleMap>
		<Style id="hl2">
			<IconStyle>
				<scale>1.2</scale>
				<Icon>
					<href>http://maps.google.com/mapfiles/kml/shapes/placemark_circle_highlight.png</href>
				</Icon>
			</IconStyle>
		</Style>
		<Style id="default2">
			<IconStyle>
				<scale>1.2</scale>
				<Icon>
					<href>http://maps.google.com/mapfiles/kml/shapes/placemark_circle.png</href>
				</Icon>
			</IconStyle>
		</Style>
		<StyleMap id="default02">
			<Pair>
				<key>normal</key>
				<styleUrl>#default3</styleUrl>
			</Pair>
			<Pair>
				<key>highlight</key>
				<styleUrl>#hl2</styleUrl>
			</Pair>
		</StyleMap>
		<Placemark>
			<name>Ada</name>
			<styleUrl>#default010</styleUrl>
			<Point>
				<coordinates>-116.1976767,43.6106641,0</coordinates>
			</Point>
		</Placemark>
		<Placemark>
			<name>Ada (old)</name>
			<LookAt>
				<longitude>-116.1979389398378</longitude>
				<latitude>43.61707918739332</latitude>
				<altitude>0</altitude>
				<heading>-8.23634033268012e-06</heading>
				<tilt>0</tilt>
				<range>381.7963184876297</range>
				<gx:altitudeMode>relativeToSeaFloor</gx:altitudeMode>
			</LookAt>
			<styleUrl>#default02</styleUrl>
			<Point>
				<gx:drawOrder>1</gx:drawOrder>
				<coordinates>-116.1978916089554,43.61681362517229,0</coordinates>
			</Point>
		</Placemark>
		<Placemark>
			<name>Adams</name>
			<styleUrl>#default010</styleUrl>
			<Point>
				<coordinates>-116.4343618,44.73747349999999,0</coordinates>
			</Point>
		</Placemark>
		<Placemark>
			<name>Bannock</name>
			<styleUrl>#default010</styleUrl>
			<Point>
				<coordinates>-112.4432091,42.867067,0</coordinates>
			</Point>
		</Placemark>
		<Placemark>
			<name>Bear Lake</name>
			<styleUrl>#default02</styleUrl>
			<Point>
				<coordinates>-111.4006699707376,42.22721964234911,0</coordinates>
			</Point>
		</Placemark>
		<Placemark>
			<name>Benewah</name>
			<styleUrl>#default010</styleUrl>
			<Point>
				<coordinates>-116.567052,47.3150645,0</coordinates>
			</Point>
		</Placemark>
		<Placemark>
			<name>Bingham</name>
			<styleUrl>#default010</styleUrl>
			<Point>
				<coordinates>-112.344319,43.194511,0</coordinates>
			</Point>
		</Placemark>
		<Placemark>
			<name>Blaine</name>
			<styleUrl>#default02</styleUrl>
			<Point>
				<coordinates>-114.3132562679018,43.51834611237633,0</coordinates>
			</Point>
		</Placemark>
		<Placemark>
			<name>Boise</name>
			<styleUrl>#default010</styleUrl>
			<Point>
				<coordinates>-115.8330698,43.8282067,0</coordinates>
			</Point>
		</Placemark>
		<Placemark>
			<name>Bonner</name>
			<styleUrl>#default02</styleUrl>
			<Point>
				<coordinates>-116.5474005910815,48.2719352295417,0</coordinates>
			</Point>
		</Placemark>
		<Placemark>
			<name>Bonneville</name>
			<styleUrl>#default02</styleUrl>
			<Point>
				<coordinates>-112.0412138281921,43.4951056953904,0</coordinates>
			</Point>
		</Placemark>
		<Placemark>
			<name>Boundary</name>
			<styleUrl>#default02</styleUrl>
			<Point>
				<coordinates>-116.3138390543609,48.6959015586108,0</coordinates>
			</Point>
		</Placemark>
		<Placemark>
			<name>Butte</name>
			<styleUrl>#default02</styleUrl>
			<Point>
				<coordinates>-113.3025804445673,43.63532626873507,0</coordinates>
			</Point>
		</Placemark>
		<Placemark>
			<name>Camas</name>
			<styleUrl>#default02</styleUrl>
			<Point>
				<coordinates>-114.7922801424297,43.34574325700993,0</coordinates>
			</Point>
		</Placemark>
		<Placemark>
			<name>Canyon</name>
			<styleUrl>#default010</styleUrl>
			<Point>
				<coordinates>-116.6813513,43.6654499,0</coordinates>
			</Point>
		</Placemark>
		<Placemark>
			<name>Caribou</name>
			<styleUrl>#default010</styleUrl>
			<Point>
				<coordinates>-111.6031712,42.6555916,0</coordinates>
			</Point>
		</Placemark>
		<Placemark>
			<name>Cassia</name>
			<styleUrl>#default010</styleUrl>
			<Point>
				<coordinates>-113.7928833,42.5345789,0</coordinates>
			</Point>
		</Placemark>
		<Placemark>
			<name>Clark</name>
			<styleUrl>#default02</styleUrl>
			<Point>
				<coordinates>-112.2329535869149,44.17658404859405,0</coordinates>
			</Point>
		</Placemark>
		<Placemark>
			<name>Clearwater</name>
			<styleUrl>#default010</styleUrl>
			<Point>
				<coordinates>-116.254996,46.479868,0</coordinates>
			</Point>
		</Placemark>
		<Placemark>
			<name>Custer</name>
			<styleUrl>#default02</styleUrl>
			<Point>
				<coordinates>-114.2308220196705,44.5050063869114,0</coordinates>
			</Point>
		</Placemark>
		<Placemark>
			<name>Elmore</name>
			<styleUrl>#default02</styleUrl>
			<Point>
				<coordinates>-115.6902603095377,43.13169135868876,0</coordinates>
			</Point>
		</Placemark>
		<Placemark>
			<name>Franklin</name>
			<styleUrl>#default010</styleUrl>
			<Point>
				<coordinates>-111.87808,42.095894,0</coordinates>
			</Point>
		</Placemark>
		<Placemark>
			<name>Fremont</name>
			<styleUrl>#default010</styleUrl>
			<Point>
				<coordinates>-111.6845046,43.96778999999999,0</coordinates>
			</Point>
		</Placemark>
		<Placemark>
			<name>Gem</name>
			<styleUrl>#default010</styleUrl>
			<Point>
				<coordinates>-116.4950263,43.875267,0</coordinates>
			</Point>
		</Placemark>
		<Placemark>
			<name>Gooding</name>
			<styleUrl>#default02</styleUrl>
			<Point>
				<coordinates>-114.7123457871994,42.93902992395962,0</coordinates>
			</Point>
		</Placemark>
		<Placemark>
			<name>Idaho</name>
			<styleUrl>#default010</styleUrl>
			<Point>
				<coordinates>-116.1233137,45.92626550000001,0</coordinates>
			</Point>
		</Placemark>
		<Placemark>
			<name>Jefferson</name>
			<styleUrl>#default010</styleUrl>
			<Point>
				<coordinates>-111.9102507,43.6790301,0</coordinates>
			</Point>
		</Placemark>
		<Placemark>
			<name>Jefferson (old)</name>
			<LookAt>
				<longitude>-111.9120028676525</longitude>
				<latitude>43.67271039254509</latitude>
				<altitude>0</altitude>
				<heading>-0.001181248054137654</heading>
				<tilt>0</tilt>
				<range>426.3542738021524</range>
				<gx:altitudeMode>relativeToSeaFloor</gx:altitudeMode>
			</LookAt>
			<styleUrl>#default02</styleUrl>
			<Point>
				<gx:drawOrder>1</gx:drawOrder>
				<coordinates>-111.9115745772005,43.67298385063379,0</coordinates>
			</Point>
		</Placemark>
		<Placemark>
			<name>Jerome</name>
			<styleUrl>#default02</styleUrl>
			<Point>
				<coordinates>-114.5180066810452,42.72645935689702,0</coordinates>
			</Point>
		</Placemark>
		<Placemark>
			<name>Kootenai</name>
			<styleUrl>#default02</styleUrl>
			<Point>
				<coordinates>-116.7866598719133,47.67726370833005,0</coordinates>
			</Point>
		</Placemark>
		<Placemark>
			<name>Latah</name>
			<styleUrl>#default010</styleUrl>
			<Point>
				<coordinates>-116.9967461,46.7306231,0</coordinates>
			</Point>
		</Placemark>
		<Placemark>
			<name>Lemhi</name>
			<styleUrl>#default010</styleUrl>
			<Point>
				<coordinates>-113.9022526,45.17926270000001,0</coordinates>
			</Point>
		</Placemark>
		<Placemark>
			<name>Lewis</name>
			<styleUrl>#default02</styleUrl>
			<Point>
				<coordinates>-116.2409274903839,46.23322414275903,0</coordinates>
			</Point>
		</Placemark>
		<Placemark>
			<name>Lincoln</name>
			<styleUrl>#default02</styleUrl>
			<Point>
				<coordinates>-114.4088480594076,42.93352569316483,0</coordinates>
			</Point>
		</Placemark>
		<Placemark>
			<name>Madison</name>
			<styleUrl>#default02</styleUrl>
			<Point>
				<coordinates>-111.7785389171021,43.82643943831257,0</coordinates>
			</Point>
		</Placemark>
		<Placemark>
			<name>Minidoka</name>
			<styleUrl>#default02</styleUrl>
			<Point>
				<coordinates>-113.6771562106815,42.61909331011462,0</coordinates>
			</Point>
		</Placemark>
		<Placemark>
			<name>Nez Perce</name>
			<styleUrl>#default010</styleUrl>
			<Point>
				<coordinates>-117.0163706,46.4182876,0</coordinates>
			</Point>
		</Placemark>
		<Placemark>
			<name>Oneida</name>
			<styleUrl>#default010</styleUrl>
			<Point>
				<coordinates>-112.2437642,42.1864331,0</coordinates>
			</Point>
		</Placemark>
		<Placemark>
			<name>Owyhee</name>
			<LookAt>
				<longitude>-116.5508963141019</longitude>
				<latitude>43.21641522036841</latitude>
				<altitude>0</altitude>
				<heading>0.0001112624220135669</heading>
				<tilt>0</tilt>
				<range>701.3761880659549</range>
				<gx:altitudeMode>relativeToSeaFloor</gx:altitudeMode>
			</LookAt>
			<styleUrl>#default02</styleUrl>
			<Point>
				<gx:drawOrder>1</gx:drawOrder>
				<coordinates>-116.551068810764,43.21687091915908,0</coordinates>
			</Point>
		</Placemark>
		<Placemark>
			<name>Payette</name>
			<styleUrl>#default010</styleUrl>
			<Point>
				<coordinates>-116.9296725,44.077575,0</coordinates>
			</Point>
		</Placemark>
		<Placemark>
			<name>Payette (old)</name>
			<LookAt>
				<longitude>-116.934699963452</longitude>
				<latitude>44.07797237723076</latitude>
				<altitude>0</altitude>
				<heading>0.00012663130884792</heading>
				<tilt>0</tilt>
				<range>410.5910978085419</range>
				<gx:altitudeMode>relativeToSeaFloor</gx:altitudeMode>
			</LookAt>
			<styleUrl>#default02</styleUrl>
			<Point>
				<gx:drawOrder>1</gx:drawOrder>
				<coordinates>-116.9347204753423,44.07794843263894,0</coordinates>
			</Point>
		</Placemark>
		<Placemark>
			<name>Power</name>
			<styleUrl>#default02</styleUrl>
			<Point>
				<coordinates>-112.8496287475525,42.78293844718669,0</coordinates>
			</Point>
		</Placemark>
		<Placemark>
			<name>Shoshone</name>
			<styleUrl>#default02</styleUrl>
			<Point>
				<coordinates>-115.9220876586861,47.47134478942412,0</coordinates>
			</Point>
		</Placemark>
		<Placemark>
			<name>Teton</name>
			<styleUrl>#default010</styleUrl>
			<Point>
				<coordinates>-111.116018,43.7242293,0</coordinates>
			</Point>
		</Placemark>
		<Placemark>
			<name>Teton (old)</name>
			<LookAt>
				<longitude>-111.1103015791316</longitude>
				<latitude>43.72422213470325</latitude>
				<altitude>0</altitude>
				<heading>0.0001737790815594421</heading>
				<tilt>0</tilt>
				<range>308.93756733838</range>
				<gx:altitudeMode>relativeToSeaFloor</gx:altitudeMode>
			</LookAt>
			<styleUrl>#default02</styleUrl>
			<Point>
				<gx:drawOrder>1</gx:drawOrder>
				<coordinates>-111.1106928531828,43.72423183694341,0</coordinates>
			</Point>
		</Placemark>
		<Placemark>
			<name>Twin Falls</name>
			<styleUrl>#default02</styleUrl>
			<Point>
				<coordinates>-114.4675558012989,42.55871952281263,0</coordinates>
			</Point>
		</Placemark>
		<Placemark>
			<name>Valley</name>
			<styleUrl>#default02</styleUrl>
			<Point>
				<coordinates>-116.0435792107388,44.51736460672313,0</coordinates>
			</Point>
		</Placemark>
		<Placemark>
			<name>Washington</name>
			<styleUrl>#default02</styleUrl>
			<Point>
				<coordinates>-116.9663085581634,44.24745659742103,0</coordinates>
			</Point>
		</Placemark>
	</Document>
	<Document>
		<name>GA</name>
		<Style id="hl20">
			<IconStyle>
				<scale>1.2</scale>
				<Icon>
					<href>http://maps.google.com/mapfiles/kml/shapes/placemark_circle_highlight.png</href>
				</Icon>
			</IconStyle>
		</Style>
		<StyleMap id="default020">
			<Pair>
				<key>normal</key>
				<styleUrl>#default30</styleUrl>
			</Pair>
			<Pair>
				<key>highlight</key>
				<styleUrl>#hl20</styleUrl>
			</Pair>
		</StyleMap>
		<Style id="default30">
			<IconStyle>
				<scale>1.2</scale>
				<Icon>
					<href>http://maps.google.com/mapfiles/kml/shapes/placemark_circle.png</href>
				</Icon>
			</IconStyle>
		</Style>
		<Placemark>
			<name>Appling</name>
			<styleUrl>#default020</styleUrl>
			<Point>
				<coordinates>-82.349374,31.778062,0</coordinates>
			</Point>
		</Placemark>
		<Placemark>
			<name>Atkinson</name>
			<styleUrl>#default020</styleUrl>
			<Point>
				<coordinates>-82.85350710524834,31.29576140140426,0</coordinates>
			</Point>
		</Placemark>
		<Placemark>
			<name>Bacon</name>
			<styleUrl>#default020</styleUrl>
			<Point>
				<coordinates>-82.4693073,31.5416417,0</coordinates>
			</Point>
		</Placemark>
		<Placemark>
			<name>Baker</name>
			<styleUrl>#default020</styleUrl>
			<Point>
				<coordinates>-84.3422349510484,31.31783381402116,0</coordinates>
			</Point>
		</Placemark>
		<Placemark>
			<name>Baker (old)</name>
			<LookAt>
				<longitude>-84.33507640172762</longitude>
				<latitude>31.31435728107077</latitude>
				<altitude>0</altitude>
				<heading>0.0021619004853943</heading>
				<tilt>0</tilt>
				<range>426.9759885440022</range>
				<gx:altitudeMode>relativeToSeaFloor</gx:altitudeMode>
			</LookAt>
			<styleUrl>#default020</styleUrl>
			<Point>
				<gx:drawOrder>1</gx:drawOrder>
				<coordinates>-84.33534754752144,31.31428383882758,0</coordinates>
			</Point>
		</Placemark>
		<Placemark>
			<name>Baldwin</name>
			<styleUrl>#default020</styleUrl>
			<Point>
				<coordinates>-83.2285792,33.0813957,0</coordinates>
			</Point>
		</Placemark>
		<Placemark>
			<name>Baldwin (old)</name>
			<LookAt>
				<longitude>-83.22854206931505</longitude>
				<latitude>33.08141989819855</latitude>
				<altitude>0</altitude>
				<heading>2.026704222437498e-05</heading>
				<tilt>0</tilt>
				<range>242.3847264863053</range>
				<gx:altitudeMode>relativeToSeaFloor</gx:altitudeMode>
			</LookAt>
			<styleUrl>#default020</styleUrl>
			<Point>
				<gx:drawOrder>1</gx:drawOrder>
				<coordinates>-83.2294164143035,33.08130889278562,0</coordinates>
			</Point>
		</Placemark>
		<Placemark>
			<name>Banks</name>
			<styleUrl>#default020</styleUrl>
			<Point>
				<coordinates>-83.4993156,34.3354709,0</coordinates>
			</Point>
		</Placemark>
		<Placemark>
			<name>Barrow</name>
			<styleUrl>#default020</styleUrl>
			<Point>
				<coordinates>-83.7612713,34.0012231,0</coordinates>
			</Point>
		</Placemark>
		<Placemark>
			<name>Barrow (2)</name>
			<LookAt>
				<longitude>-83.72167458470747</longitude>
				<latitude>33.99222429909187</latitude>
				<altitude>0</altitude>
				<heading>0.02179819700809215</heading>
				<tilt>0</tilt>
				<range>282.2247910783961</range>
				<gx:altitudeMode>relativeToSeaFloor</gx:altitudeMode>
			</LookAt>
			<styleUrl>#default020</styleUrl>
			<Point>
				<gx:drawOrder>1</gx:drawOrder>
				<coordinates>-83.72167458470747,33.99222429909186,0</coordinates>
			</Point>
		</Placemark>
		<Placemark>
			<name>Bartow</name>
			<styleUrl>#default020</styleUrl>
			<Point>
				<coordinates>-84.79978149999999,34.1658228,0</coordinates>
			</Point>
		</Placemark>
		<Placemark>
			<name>Ben Hill</name>
			<styleUrl>#default020</styleUrl>
			<Point>
				<coordinates>-83.24986246452981,31.71448228231064,0</coordinates>
			</Point>
		</Placemark>
		<Placemark>
			<name>Berrien</name>
			<styleUrl>#default020</styleUrl>
			<Point>
				<coordinates>-83.24948910000001,31.2084593,0</coordinates>
			</Point>
		</Placemark>
		<Placemark>
			<name>Berrien (2)</name>
			<LookAt>
				<longitude>-83.2496368610406</longitude>
				<latitude>31.2066309820124</latitude>
				<altitude>0</altitude>
				<heading>-7.662323301029654e-05</heading>
				<tilt>0</tilt>
				<range>173.9783047073563</range>
				<gx:altitudeMode>relativeToSeaFloor</gx:altitudeMode>
			</LookAt>
			<styleUrl>#default020</styleUrl>
			<Point>
				<gx:drawOrder>1</gx:drawOrder>
				<coordinates>-83.24975812533006,31.20671472421012,0</coordinates>
			</Point>
		</Placemark>
		<Placemark>
			<name>Bibb</name>
			<styleUrl>#default020</styleUrl>
			<Point>
				<coordinates>-83.62789909999999,32.8385149,0</coordinates>
			</Point>
		</Placemark>
		<Placemark>
			<name>Bleckley</name>
			<styleUrl>#default020</styleUrl>
			<Point>
				<coordinates>-83.35538329111289,32.38752590279731,0</coordinates>
			</Point>
		</Placemark>
		<Placemark>
			<name>Brantley</name>
			<styleUrl>#default020</styleUrl>
			<Point>
				<coordinates>-81.9815268,31.2030129,0</coordinates>
			</Point>
		</Placemark>
		<Placemark>
			<name>Brooks</name>
			<styleUrl>#default020</styleUrl>
			<Point>
				<coordinates>-83.56010911683404,30.78537466947243,0</coordinates>
			</Point>
		</Placemark>
		<Placemark>
			<name>Bryan</name>
			<styleUrl>#default020</styleUrl>
			<Point>
				<coordinates>-81.62145080000001,32.1334725,0</coordinates>
			</Point>
		</Placemark>
		<Placemark>
			<name>Bulloch</name>
			<styleUrl>#default020</styleUrl>
			<Point>
				<coordinates>-81.7830065,32.4493354,0</coordinates>
			</Point>
		</Placemark>
		<Placemark>
			<name>Burke</name>
			<styleUrl>#default020</styleUrl>
			<Point>
				<coordinates>-82.01549,33.090532,0</coordinates>
			</Point>
		</Placemark>
		<Placemark>
			<name>Butts</name>
			<styleUrl>#default020</styleUrl>
			<Point>
				<coordinates>-83.96695625150886,33.29478889449054,0</coordinates>
			</Point>
		</Placemark>
		<Placemark>
			<name>Calhoun</name>
			<styleUrl>#default020</styleUrl>
			<Point>
				<coordinates>-84.5996399493049,31.5376371536415,0</coordinates>
			</Point>
		</Placemark>
		<Placemark>
			<name>Camden</name>
			<styleUrl>#default020</styleUrl>
			<Point>
				<coordinates>-81.7214433,30.9691287,0</coordinates>
			</Point>
		</Placemark>
		<Placemark>
			<name>Candler</name>
			<styleUrl>#default020</styleUrl>
			<Point>
				<coordinates>-82.0624941,32.3967723,0</coordinates>
			</Point>
		</Placemark>
		<Placemark>
			<name>Carroll</name>
			<styleUrl>#default020</styleUrl>
			<Point>
				<coordinates>-85.07306068100939,33.57926455265021,0</coordinates>
			</Point>
		</Placemark>
		<Placemark>
			<name>Catoosa</name>
			<styleUrl>#default020</styleUrl>
			<Point>
				<coordinates>-85.11079938769502,34.91583748838865,0</coordinates>
			</Point>
		</Placemark>
		<Placemark>
			<name>Charlton</name>
			<styleUrl>#default020</styleUrl>
			<Point>
				<coordinates>-82.0048613,30.831897,0</coordinates>
			</Point>
		</Placemark>
		<Placemark>
			<name>Chatham</name>
			<styleUrl>#default020</styleUrl>
			<Point>
				<coordinates>-81.0971256,32.0792186,0</coordinates>
			</Point>
		</Placemark>
		<Placemark>
			<name>Chattahoochee</name>
			<styleUrl>#default020</styleUrl>
			<Point>
				<coordinates>-84.7764389,32.3063506,0</coordinates>
			</Point>
		</Placemark>
		<Placemark>
			<name>Chattooga</name>
			<styleUrl>#default020</styleUrl>
			<Point>
				<coordinates>-85.34847112301485,34.48046043104762,0</coordinates>
			</Point>
		</Placemark>
		<Placemark>
			<name>Cherokee</name>
			<styleUrl>#default020</styleUrl>
			<Point>
				<coordinates>-84.4898908,34.2377035,0</coordinates>
			</Point>
		</Placemark>
		<Placemark>
			<name>Cherokee (old)</name>
			<LookAt>
				<longitude>-84.49040127848464</longitude>
				<latitude>34.23734036902646</latitude>
				<altitude>0</altitude>
				<heading>-0.0002872050743171931</heading>
				<tilt>0</tilt>
				<range>292.4451286106295</range>
				<gx:altitudeMode>relativeToSeaFloor</gx:altitudeMode>
			</LookAt>
			<styleUrl>#default020</styleUrl>
			<Point>
				<gx:drawOrder>1</gx:drawOrder>
				<coordinates>-84.49100324836948,34.23762603066596,0</coordinates>
			</Point>
		</Placemark>
		<Placemark>
			<name>Clarke</name>
			<styleUrl>#default020</styleUrl>
			<Point>
				<coordinates>-83.3745586,33.9601428,0</coordinates>
			</Point>
		</Placemark>
		<Placemark>
			<name>Clay*</name>
			<styleUrl>#default020</styleUrl>
			<Point>
				<coordinates>-85.04876607847496,31.60526855276902,0</coordinates>
			</Point>
		</Placemark>
		<Placemark>
			<name>Clayton</name>
			<styleUrl>#default020</styleUrl>
			<Point>
				<coordinates>-84.35700732049521,33.50658097192088,0</coordinates>
			</Point>
		</Placemark>
		<Placemark>
			<name>Clayton (old)</name>
			<LookAt>
				<longitude>-84.35313514616988</longitude>
				<latitude>33.52068940895841</latitude>
				<altitude>0</altitude>
				<heading>0.002259163800892743</heading>
				<tilt>0</tilt>
				<range>306.9204426802557</range>
				<gx:altitudeMode>relativeToSeaFloor</gx:altitudeMode>
			</LookAt>
			<styleUrl>#default020</styleUrl>
			<Point>
				<gx:drawOrder>1</gx:drawOrder>
				<coordinates>-84.35318223246043,33.52089926608622,0</coordinates>
			</Point>
		</Placemark>
		<Placemark>
			<name>Clinch</name>
			<styleUrl>#default020</styleUrl>
			<Point>
				<coordinates>-82.74852643262469,31.03684765806839,0</coordinates>
			</Point>
		</Placemark>
		<Placemark>
			<name>Cobb</name>
			<styleUrl>#default020</styleUrl>
			<Point>
				<coordinates>-84.54654989025101,33.95276312496424,0</coordinates>
			</Point>
		</Placemark>
		<Placemark>
			<name>Coffee</name>
			<styleUrl>#default020</styleUrl>
			<Point>
				<coordinates>-82.85098103880202,31.50849409578899,0</coordinates>
			</Point>
		</Placemark>
		<Placemark>
			<name>Colquitt</name>
			<styleUrl>#default020</styleUrl>
			<Point>
				<coordinates>-83.78828232046192,31.17940325006459,0</coordinates>
			</Point>
		</Placemark>
		<Placemark>
			<name>Columbia</name>
			<styleUrl>#default020</styleUrl>
			<Point>
				<coordinates>-82.13303329999999,33.5454674,0</coordinates>
			</Point>
		</Placemark>
		<Placemark>
			<name>Cook</name>
			<styleUrl>#default020</styleUrl>
			<Point>
				<coordinates>-83.42374099999999,31.1392183,0</coordinates>
			</Point>
		</Placemark>
		<Placemark>
			<name>Coweta</name>
			<styleUrl>#default020</styleUrl>
			<Point>
				<coordinates>-84.80003219999999,33.3748411,0</coordinates>
			</Point>
		</Placemark>
		<Placemark>
			<name>Crawford</name>
			<styleUrl>#default020</styleUrl>
			<Point>
				<coordinates>-83.99667990606912,32.72312646705367,0</coordinates>
			</Point>
		</Placemark>
		<Placemark>
			<name>Crawford (old)</name>
			<LookAt>
				<longitude>-83.99728526428652</longitude>
				<latitude>32.72417125378774</latitude>
				<altitude>0</altitude>
				<heading>0.00512218041476935</heading>
				<tilt>0</tilt>
				<range>379.3110029216427</range>
				<gx:altitudeMode>relativeToSeaFloor</gx:altitudeMode>
			</LookAt>
			<styleUrl>#default020</styleUrl>
			<Point>
				<gx:drawOrder>1</gx:drawOrder>
				<coordinates>-83.99795736506287,32.72440649036639,0</coordinates>
			</Point>
		</Placemark>
		<Placemark>
			<name>Crisp</name>
			<styleUrl>#default020</styleUrl>
			<Point>
				<coordinates>-83.78195169999999,31.9734462,0</coordinates>
			</Point>
		</Placemark>
		<Placemark>
			<name>Dade</name>
			<styleUrl>#default020</styleUrl>
			<Point>
				<coordinates>-85.50939056029921,34.87218057745774,0</coordinates>
			</Point>
		</Placemark>
		<Placemark>
			<name>Dawson</name>
			<styleUrl>#default020</styleUrl>
			<Point>
				<coordinates>-84.11934225782302,34.42298008731693,0</coordinates>
			</Point>
		</Placemark>
		<Placemark>
			<name>Dawson (old)</name>
			<LookAt>
				<longitude>-84.11901664090179</longitude>
				<latitude>34.42099231954423</latitude>
				<altitude>0</altitude>
				<heading>0.0004828994583743721</heading>
				<tilt>0</tilt>
				<range>514.7975643490106</range>
				<gx:altitudeMode>relativeToSeaFloor</gx:altitudeMode>
			</LookAt>
			<styleUrl>#default020</styleUrl>
			<Point>
				<gx:drawOrder>1</gx:drawOrder>
				<coordinates>-84.11905777814646,34.4212479788174,0</coordinates>
			</Point>
		</Placemark>
		<Placemark>
			<name>Decatur</name>
			<styleUrl>#default020</styleUrl>
			<Point>
				<coordinates>-84.57705233921288,30.90631149140039,0</coordinates>
			</Point>
		</Placemark>
		<Placemark>
			<name>Dekalb</name>
			<styleUrl>#default020</styleUrl>
			<Point>
				<coordinates>-84.29654955797849,33.77505997668254,0</coordinates>
			</Point>
		</Placemark>
		<Placemark>
			<name>Dodge</name>
			<styleUrl>#default020</styleUrl>
			<Point>
				<coordinates>-83.17600375722272,32.20095883418501,0</coordinates>
			</Point>
		</Placemark>
		<Placemark>
			<name>Dooly</name>
			<styleUrl>#default020</styleUrl>
			<Point>
				<coordinates>-83.79754559999999,32.09111290000001,0</coordinates>
			</Point>
		</Placemark>
		<Placemark>
			<name>Dougherty</name>
			<styleUrl>#default020</styleUrl>
			<Point>
				<coordinates>-84.15242219999999,31.5793005,0</coordinates>
			</Point>
		</Placemark>
		<Placemark>
			<name>Douglas</name>
			<styleUrl>#default020</styleUrl>
			<Point>
				<coordinates>-84.73064549999999,33.7434238,0</coordinates>
			</Point>
		</Placemark>
		<Placemark>
			<name>Early</name>
			<styleUrl>#default020</styleUrl>
			<Point>
				<coordinates>-84.93401612784825,31.37762878642507,0</coordinates>
			</Point>
		</Placemark>
		<Placemark>
			<name>Echols</name>
			<styleUrl>#default020</styleUrl>
			<Point>
				<coordinates>-83.02776295785152,30.70311141694271,0</coordinates>
			</Point>
		</Placemark>
		<Placemark>
			<name>Effingham</name>
			<styleUrl>#default020</styleUrl>
			<Point>
				<coordinates>-81.31481992408945,32.37408043947491,0</coordinates>
			</Point>
		</Placemark>
		<Placemark>
			<name>Elbert</name>
			<styleUrl>#default020</styleUrl>
			<Point>
				<coordinates>-82.86868158426613,34.10994365177518,0</coordinates>
			</Point>
		</Placemark>
		<Placemark>
			<name>Emanuel</name>
			<styleUrl>#default020</styleUrl>
			<Point>
				<coordinates>-82.3329746,32.5964346,0</coordinates>
			</Point>
		</Placemark>
		<Placemark>
			<name>Evans</name>
			<styleUrl>#default020</styleUrl>
			<Point>
				<coordinates>-81.90757241557792,32.16174342716214,0</coordinates>
			</Point>
		</Placemark>
		<Placemark>
			<name>Fannin</name>
			<styleUrl>#default020</styleUrl>
			<Point>
				<coordinates>-84.32680839999999,34.864311,0</coordinates>
			</Point>
		</Placemark>
		<Placemark>
			<name>Fayette</name>
			<styleUrl>#default020</styleUrl>
			<Point>
				<coordinates>-84.45111472821529,33.44233605601283,0</coordinates>
			</Point>
		</Placemark>
		<Placemark>
			<name>Floyd</name>
			<styleUrl>#default020</styleUrl>
			<Point>
				<coordinates>-85.17205389999999,34.2556015,0</coordinates>
			</Point>
		</Placemark>
		<Placemark>
			<name>Floyd (old)</name>
			<LookAt>
				<longitude>-85.17147276932508</longitude>
				<latitude>34.25543656419605</latitude>
				<altitude>0</altitude>
				<heading>0.0003267986631502215</heading>
				<tilt>0</tilt>
				<range>366.4189212655451</range>
				<gx:altitudeMode>relativeToSeaFloor</gx:altitudeMode>
			</LookAt>
			<styleUrl>#default020</styleUrl>
			<Point>
				<gx:drawOrder>1</gx:drawOrder>
				<coordinates>-85.17137710049266,34.25584160208346,0</coordinates>
			</Point>
		</Placemark>
		<Placemark>
			<name>Forsyth</name>
			<styleUrl>#default020</styleUrl>
			<Point>
				<coordinates>-84.1385231,34.2064247,0</coordinates>
			</Point>
		</Placemark>
		<Placemark>
			<name>Forsyth (old)</name>
			<LookAt>
				<longitude>-84.13915401722466</longitude>
				<latitude>34.20647095744397</latitude>
				<altitude>0</altitude>
				<heading>-0.0003546840898542843</heading>
				<tilt>0</tilt>
				<range>329.5963056496327</range>
				<gx:altitudeMode>relativeToSeaFloor</gx:altitudeMode>
			</LookAt>
			<styleUrl>#default020</styleUrl>
			<Point>
				<gx:drawOrder>1</gx:drawOrder>
				<coordinates>-84.13972252858451,34.20650152125752,0</coordinates>
			</Point>
		</Placemark>
		<Placemark>
			<name>Franklin</name>
			<styleUrl>#default020</styleUrl>
			<Point>
				<coordinates>-83.23462824776649,34.36992369358672,0</coordinates>
			</Point>
		</Placemark>
		<Placemark>
			<name>Fulton</name>
			<styleUrl>#default020</styleUrl>
			<Point>
				<coordinates>-84.390919,33.750856,0</coordinates>
			</Point>
		</Placemark>
		<Placemark>
			<name>Gilmer</name>
			<styleUrl>#default020</styleUrl>
			<Point>
				<coordinates>-84.4833392,34.6951272,0</coordinates>
			</Point>
		</Placemark>
		<Placemark>
			<name>Glascock</name>
			<styleUrl>#default020</styleUrl>
			<Point>
				<coordinates>-82.59460599188327,33.23306747606878,0</coordinates>
			</Point>
		</Placemark>
		<Placemark>
			<name>Glynn</name>
			<styleUrl>#default020</styleUrl>
			<Point>
				<coordinates>-81.4951519,31.1543838,0</coordinates>
			</Point>
		</Placemark>
		<Placemark>
			<name>Gordon</name>
			<styleUrl>#default020</styleUrl>
			<Point>
				<coordinates>-84.95084469999999,34.5024855,0</coordinates>
			</Point>
		</Placemark>
		<Placemark>
			<name>Grady</name>
			<styleUrl>#default020</styleUrl>
			<Point>
				<coordinates>-84.20766669999999,30.8785809,0</coordinates>
			</Point>
		</Placemark>
		<Placemark>
			<name>Greene</name>
			<styleUrl>#default020</styleUrl>
			<Point>
				<coordinates>-83.18213104374229,33.5766662511329,0</coordinates>
			</Point>
		</Placemark>
		<Placemark>
			<name>Gwinnett</name>
			<styleUrl>#default020</styleUrl>
			<Point>
				<coordinates>-83.9930118234242,33.95126695470574,0</coordinates>
			</Point>
		</Placemark>
		<Placemark>
			<name>Gwinnett (old)</name>
			<LookAt>
				<longitude>-83.98882436438329</longitude>
				<latitude>33.95676298259536</latitude>
				<altitude>0</altitude>
				<heading>0.0001432176779327192</heading>
				<tilt>0</tilt>
				<range>249.0634933512137</range>
				<gx:altitudeMode>relativeToSeaFloor</gx:altitudeMode>
			</LookAt>
			<styleUrl>#default020</styleUrl>
			<Point>
				<gx:drawOrder>1</gx:drawOrder>
				<coordinates>-83.98909784574785,33.95675750375518,0</coordinates>
			</Point>
		</Placemark>
		<Placemark>
			<name>Habersham</name>
			<styleUrl>#default020</styleUrl>
			<Point>
				<coordinates>-83.52765564433129,34.61520245452857,0</coordinates>
			</Point>
		</Placemark>
		<Placemark>
			<name>Hall</name>
			<styleUrl>#default020</styleUrl>
			<Point>
				<coordinates>-83.82459217048886,34.29926664522076,0</coordinates>
			</Point>
		</Placemark>
		<Placemark>
			<name>Hall (old)</name>
			<LookAt>
				<longitude>-83.82509268269553</longitude>
				<latitude>34.29886275675415</latitude>
				<altitude>0</altitude>
				<heading>-0.0002657505287685668</heading>
				<tilt>0</tilt>
				<range>286.1485065772594</range>
				<gx:altitudeMode>relativeToSeaFloor</gx:altitudeMode>
			</LookAt>
			<styleUrl>#default020</styleUrl>
			<Point>
				<gx:drawOrder>1</gx:drawOrder>
				<coordinates>-83.82554163529967,34.2989696188607,0</coordinates>
			</Point>
		</Placemark>
		<Placemark>
			<name>Hancock</name>
			<styleUrl>#default020</styleUrl>
			<Point>
				<coordinates>-82.97622244285563,33.27515141875525,0</coordinates>
			</Point>
		</Placemark>
		<Placemark>
			<name>Haralson</name>
			<styleUrl>#default020</styleUrl>
			<Point>
				<coordinates>-85.1896668861945,33.80183613033859,0</coordinates>
			</Point>
		</Placemark>
		<Placemark>
			<name>Harris</name>
			<styleUrl>#default020</styleUrl>
			<Point>
				<coordinates>-84.87468202691402,32.75882920371093,0</coordinates>
			</Point>
		</Placemark>
		<Placemark>
			<name>Hart</name>
			<styleUrl>#default020</styleUrl>
			<Point>
				<coordinates>-82.9324051,34.3530023,0</coordinates>
			</Point>
		</Placemark>
		<Placemark>
			<name>Heard</name>
			<styleUrl>#default020</styleUrl>
			<Point>
				<coordinates>-85.09798516643322,33.27924166928885,0</coordinates>
			</Point>
		</Placemark>
		<Placemark>
			<name>Henry</name>
			<styleUrl>#default020</styleUrl>
			<Point>
				<coordinates>-84.145352,33.4480635,0</coordinates>
			</Point>
		</Placemark>
		<Placemark>
			<name>Henry (old)</name>
			<LookAt>
				<longitude>-84.14603811633276</longitude>
				<latitude>33.44787003479477</latitude>
				<altitude>0</altitude>
				<heading>-0.0003781789019111723</heading>
				<tilt>0</tilt>
				<range>271.404169098081</range>
				<gx:altitudeMode>relativeToSeaFloor</gx:altitudeMode>
			</LookAt>
			<styleUrl>#default020</styleUrl>
			<Point>
				<gx:drawOrder>1</gx:drawOrder>
				<coordinates>-84.1467569988918,33.4478664534026,0</coordinates>
			</Point>
		</Placemark>
		<Placemark>
			<name>Houston</name>
			<styleUrl>#default020</styleUrl>
			<Point>
				<coordinates>-83.73383675257199,32.45774612612422,0</coordinates>
			</Point>
		</Placemark>
		<Placemark>
			<name>Irwin</name>
			<styleUrl>#default020</styleUrl>
			<Point>
				<coordinates>-83.251233,31.591703,0</coordinates>
			</Point>
		</Placemark>
		<Placemark>
			<name>Jackson</name>
			<styleUrl>#default020</styleUrl>
			<Point>
				<coordinates>-83.5601319,34.139904,0</coordinates>
			</Point>
		</Placemark>
		<Placemark>
			<name>Jackson (old)</name>
			<LookAt>
				<longitude>-83.57373788027849</longitude>
				<latitude>34.11819460933275</latitude>
				<altitude>0</altitude>
				<heading>-0.007630506522261967</heading>
				<tilt>0</tilt>
				<range>346.3914641899482</range>
				<gx:altitudeMode>relativeToSeaFloor</gx:altitudeMode>
			</LookAt>
			<styleUrl>#default020</styleUrl>
			<Point>
				<gx:drawOrder>1</gx:drawOrder>
				<coordinates>-83.57435263896171,34.11821719341035,0</coordinates>
			</Point>
		</Placemark>
		<Placemark>
			<name>Jasper</name>
			<styleUrl>#default020</styleUrl>
			<Point>
				<coordinates>-83.68362359999999,33.3049138,0</coordinates>
			</Point>
		</Placemark>
		<Placemark>
			<name>Jeff Davis</name>
			<styleUrl>#default020</styleUrl>
			<Point>
				<coordinates>-82.60082945078506,31.86263726456558,0</coordinates>
			</Point>
		</Placemark>
		<Placemark>
			<name>Jefferson</name>
			<styleUrl>#default020</styleUrl>
			<Point>
				<coordinates>-82.40856202279302,32.99820040179619,0</coordinates>
			</Point>
		</Placemark>
		<Placemark>
			<name>Jenkins</name>
			<styleUrl>#default020</styleUrl>
			<Point>
				<coordinates>-81.93916966255439,32.80428938564369,0</coordinates>
			</Point>
		</Placemark>
		<Placemark>
			<name>Johnson</name>
			<styleUrl>#default020</styleUrl>
			<Point>
				<coordinates>-82.71911166291957,32.72994160448688,0</coordinates>
			</Point>
		</Placemark>
		<Placemark>
			<name>Jones</name>
			<styleUrl>#default020</styleUrl>
			<Point>
				<coordinates>-83.53661459908761,33.00822159689872,0</coordinates>
			</Point>
		</Placemark>
		<Placemark>
			<name>Lamar</name>
			<styleUrl>#default020</styleUrl>
			<Point>
				<coordinates>-84.15598946852509,33.05244484665808,0</coordinates>
			</Point>
		</Placemark>
		<Placemark>
			<name>Lanier</name>
			<styleUrl>#default020</styleUrl>
			<Point>
				<coordinates>-83.0756097,31.0416036,0</coordinates>
			</Point>
		</Placemark>
		<Placemark>
			<name>Laurens</name>
			<styleUrl>#default020</styleUrl>
			<Point>
				<coordinates>-82.90391049999999,32.5401928,0</coordinates>
			</Point>
		</Placemark>
		<Placemark>
			<name>Lee</name>
			<styleUrl>#default020</styleUrl>
			<Point>
				<coordinates>-84.17095549999999,31.7326954,0</coordinates>
			</Point>
		</Placemark>
		<Placemark>
			<name>Liberty</name>
			<LookAt>
				<longitude>-81.59616389345277</longitude>
				<latitude>31.84747570186858</latitude>
				<altitude>0</altitude>
				<heading>0.000472390975848019</heading>
				<tilt>0</tilt>
				<range>444.4485362559412</range>
				<gx:altitudeMode>relativeToSeaFloor</gx:altitudeMode>
			</LookAt>
			<styleUrl>#default020</styleUrl>
			<Point>
				<gx:drawOrder>1</gx:drawOrder>
				<coordinates>-81.59580593178985,31.84767775991824,0</coordinates>
			</Point>
		</Placemark>
		<Placemark>
			<name>Lincoln</name>
			<styleUrl>#default020</styleUrl>
			<Point>
				<coordinates>-82.4755997,33.7945101,0</coordinates>
			</Point>
		</Placemark>
		<Placemark>
			<name>Long</name>
			<styleUrl>#default020</styleUrl>
			<Point>
				<coordinates>-81.7415322658148,31.70772112081258,0</coordinates>
			</Point>
		</Placemark>
		<Placemark>
			<name>Lowndes</name>
			<styleUrl>#default020</styleUrl>
			<Point>
				<coordinates>-83.27926716200032,30.83249248719049,0</coordinates>
			</Point>
		</Placemark>
		<Placemark>
			<name>Lumpkin</name>
			<styleUrl>#default020</styleUrl>
			<Point>
				<coordinates>-83.97581353749625,34.52903438394097,0</coordinates>
			</Point>
		</Placemark>
		<Placemark>
			<name>Lumpkin (old)</name>
			<LookAt>
				<longitude>-83.98477002282849</longitude>
				<latitude>34.53268531158358</latitude>
				<altitude>0</altitude>
				<heading>-0.005522683908276968</heading>
				<tilt>0</tilt>
				<range>297.0322303871183</range>
				<gx:altitudeMode>relativeToSeaFloor</gx:altitudeMode>
			</LookAt>
			<styleUrl>#default020</styleUrl>
			<Point>
				<gx:drawOrder>1</gx:drawOrder>
				<coordinates>-83.98488302241637,34.53260531731871,0</coordinates>
			</Point>
		</Placemark>
		<Placemark>
			<name>Macon</name>
			<styleUrl>#default020</styleUrl>
			<Point>
				<coordinates>-84.06001832829089,32.29338080979167,0</coordinates>
			</Point>
		</Placemark>
		<Placemark>
			<name>Madison</name>
			<styleUrl>#default020</styleUrl>
			<Point>
				<coordinates>-83.22125203754081,34.12455561710329,0</coordinates>
			</Point>
		</Placemark>
		<Placemark>
			<name>Marion</name>
			<styleUrl>#default020</styleUrl>
			<Point>
				<coordinates>-84.51760001790363,32.31834937537301,0</coordinates>
			</Point>
		</Placemark>
		<Placemark>
			<name>McDuffie</name>
			<styleUrl>#default020</styleUrl>
			<Point>
				<coordinates>-82.50490401235919,33.46964524195815,0</coordinates>
			</Point>
		</Placemark>
		<Placemark>
			<name>McIntosh</name>
			<styleUrl>#default020</styleUrl>
			<Point>
				<coordinates>-81.43402030819546,31.36979586072016,0</coordinates>
			</Point>
		</Placemark>
		<Placemark>
			<name>Meriwether</name>
			<styleUrl>#default020</styleUrl>
			<Point>
				<coordinates>-84.71307824395562,33.02864827771779,0</coordinates>
			</Point>
		</Placemark>
		<Placemark>
			<name>Miller</name>
			<styleUrl>#default020</styleUrl>
			<Point>
				<coordinates>-84.73400727588943,31.17164027471003,0</coordinates>
			</Point>
		</Placemark>
		<Placemark>
			<name>Mitchell</name>
			<styleUrl>#default020</styleUrl>
			<Point>
				<coordinates>-84.20914130623122,31.23151719959753,0</coordinates>
			</Point>
		</Placemark>
		<Placemark>
			<name>Monroe</name>
			<styleUrl>#default020</styleUrl>
			<Point>
				<coordinates>-83.93896685440698,33.03452252275655,0</coordinates>
			</Point>
		</Placemark>
		<Placemark>
			<name>Montgomery</name>
			<styleUrl>#default020</styleUrl>
			<Point>
				<coordinates>-82.59463043789737,32.17420802477208,0</coordinates>
			</Point>
		</Placemark>
		<Placemark>
			<name>Morgan</name>
			<styleUrl>#default020</styleUrl>
			<Point>
				<coordinates>-83.46636673873422,33.5956618672536,0</coordinates>
			</Point>
		</Placemark>
		<Placemark>
			<name>Murray</name>
			<styleUrl>#default020</styleUrl>
			<Point>
				<coordinates>-84.77043162403429,34.76694212049284,0</coordinates>
			</Point>
		</Placemark>
		<Placemark>
			<name>Muscogee</name>
			<styleUrl>#default020</styleUrl>
			<Point>
				<coordinates>-84.99114368528295,32.46339854771774,0</coordinates>
			</Point>
		</Placemark>
		<Placemark>
			<name>Newton</name>
			<styleUrl>#default020</styleUrl>
			<Point>
				<coordinates>-83.86020757838313,33.59711281941288,0</coordinates>
			</Point>
		</Placemark>
		<Placemark>
			<name>Oconee</name>
			<styleUrl>#default020</styleUrl>
			<Point>
				<coordinates>-83.410213,33.8633608,0</coordinates>
			</Point>
		</Placemark>
		<Placemark>
			<name>Oglethorpe</name>
			<styleUrl>#default020</styleUrl>
			<Point>
				<coordinates>-83.11163583334196,33.86919897916756,0</coordinates>
			</Point>
		</Placemark>
		<Placemark>
			<name>Paulding</name>
			<styleUrl>#default020</styleUrl>
			<Point>
				<coordinates>-84.84862735250388,33.91751877479421,0</coordinates>
			</Point>
		</Placemark>
		<Placemark>
			<name>Paulding (old)</name>
			<LookAt>
				<longitude>-84.84139149144619</longitude>
				<latitude>33.92416505347033</latitude>
				<altitude>0</altitude>
				<heading>0.003745604037594012</heading>
				<tilt>0</tilt>
				<range>352.2886612621397</range>
				<gx:altitudeMode>relativeToSeaFloor</gx:altitudeMode>
			</LookAt>
			<styleUrl>#default020</styleUrl>
			<Point>
				<gx:drawOrder>1</gx:drawOrder>
				<coordinates>-84.84131848440759,33.92412310772723,0</coordinates>
			</Point>
		</Placemark>
		<Placemark>
			<name>Peach</name>
			<styleUrl>#default020</styleUrl>
			<Point>
				<coordinates>-83.88807310507801,32.55351085373648,0</coordinates>
			</Point>
		</Placemark>
		<Placemark>
			<name>Pickens</name>
			<styleUrl>#default020</styleUrl>
			<Point>
				<coordinates>-84.4298675,34.4692216,0</coordinates>
			</Point>
		</Placemark>
		<Placemark>
			<name>Pierce</name>
			<styleUrl>#default020</styleUrl>
			<Point>
				<coordinates>-82.24303114921422,31.30660497221861,0</coordinates>
			</Point>
		</Placemark>
		<Placemark>
			<name>Pike</name>
			<styleUrl>#default020</styleUrl>
			<Point>
				<coordinates>-84.34212657376096,33.10257918903377,0</coordinates>
			</Point>
		</Placemark>
		<Placemark>
			<name>Polk</name>
			<styleUrl>#default020</styleUrl>
			<Point>
				<coordinates>-85.2558145,34.0137641,0</coordinates>
			</Point>
		</Placemark>
		<Placemark>
			<name>Pulaski</name>
			<styleUrl>#default020</styleUrl>
			<Point>
				<coordinates>-83.4689846,32.2830764,0</coordinates>
			</Point>
		</Placemark>
		<Placemark>
			<name>Putnam</name>
			<styleUrl>#default020</styleUrl>
			<Point>
				<coordinates>-83.38888039999999,33.3258024,0</coordinates>
			</Point>
		</Placemark>
		<Placemark>
			<name>Quitman</name>
			<styleUrl>#default020</styleUrl>
			<Point>
				<coordinates>-85.10921657622208,31.88575496888004,0</coordinates>
			</Point>
		</Placemark>
		<Placemark>
			<name>Rabun</name>
			<styleUrl>#default020</styleUrl>
			<Point>
				<coordinates>-83.40312539060753,34.87894323937763,0</coordinates>
			</Point>
		</Placemark>
		<Placemark>
			<name>Randolph</name>
			<styleUrl>#default020</styleUrl>
			<Point>
				<coordinates>-84.78945026517347,31.77291618205627,0</coordinates>
			</Point>
		</Placemark>
		<Placemark>
			<name>Richmond</name>
			<styleUrl>#default020</styleUrl>
			<Point>
				<coordinates>-81.9616798513289,33.47120968320364,0</coordinates>
			</Point>
		</Placemark>
		<Placemark>
			<name>Rockdale</name>
			<styleUrl>#default020</styleUrl>
			<Point>
				<coordinates>-84.01724323162831,33.66767068612312,0</coordinates>
			</Point>
		</Placemark>
		<Placemark>
			<name>Schley</name>
			<styleUrl>#default020</styleUrl>
			<Point>
				<coordinates>-84.30901151456183,32.23784160548814,0</coordinates>
			</Point>
		</Placemark>
		<Placemark>
			<name>Screven</name>
			<styleUrl>#default020</styleUrl>
			<Point>
				<coordinates>-81.64512706436972,32.75089835219595,0</coordinates>
			</Point>
		</Placemark>
		<Placemark>
			<name>Seminole</name>
			<styleUrl>#default020</styleUrl>
			<Point>
				<coordinates>-84.884838,31.04183969999999,0</coordinates>
			</Point>
		</Placemark>
		<Placemark>
			<name>Spalding</name>
			<styleUrl>#default020</styleUrl>
			<Point>
				<coordinates>-84.26253369999999,33.2482401,0</coordinates>
			</Point>
		</Placemark>
		<Placemark>
			<name>Stephens</name>
			<styleUrl>#default020</styleUrl>
			<Point>
				<coordinates>-83.33074093055015,34.57967874545785,0</coordinates>
			</Point>
		</Placemark>
		<Placemark>
			<name>Stewart</name>
			<styleUrl>#default020</styleUrl>
			<Point>
				<coordinates>-84.79458338341485,32.05052745487156,0</coordinates>
			</Point>
		</Placemark>
		<Placemark>
			<name>Sumter</name>
			<styleUrl>#default020</styleUrl>
			<Point>
				<coordinates>-84.23928959999999,32.07183090000001,0</coordinates>
			</Point>
		</Placemark>
		<Placemark>
			<name>Talbot</name>
			<styleUrl>#default020</styleUrl>
			<Point>
				<coordinates>-84.54059135239687,32.67722327633005,0</coordinates>
			</Point>
		</Placemark>
		<Placemark>
			<name>Taliaferro</name>
			<styleUrl>#default020</styleUrl>
			<Point>
				<coordinates>-82.8966592,33.5546391,0</coordinates>
			</Point>
		</Placemark>
		<Placemark>
			<name>Tattnall</name>
			<styleUrl>#default020</styleUrl>
			<Point>
				<coordinates>-82.11879051876346,32.08672147495109,0</coordinates>
			</Point>
		</Placemark>
		<Placemark>
			<name>Taylor</name>
			<styleUrl>#default020</styleUrl>
			<Point>
				<coordinates>-84.23729719506733,32.55716726674724,0</coordinates>
			</Point>
		</Placemark>
		<Placemark>
			<name>Telfair</name>
			<styleUrl>#default020</styleUrl>
			<Point>
				<coordinates>-82.89657156235781,32.06705018327941,0</coordinates>
			</Point>
		</Placemark>
		<Placemark>
			<name>Terrell</name>
			<styleUrl>#default020</styleUrl>
			<Point>
				<coordinates>-84.44589525473124,31.7732936185795,0</coordinates>
			</Point>
		</Placemark>
		<Placemark>
			<name>Thomas</name>
			<styleUrl>#default020</styleUrl>
			<Point>
				<coordinates>-83.98197443675521,30.83866209406067,0</coordinates>
			</Point>
		</Placemark>
		<Placemark>
			<name>Tift</name>
			<styleUrl>#default020</styleUrl>
			<Point>
				<coordinates>-83.50800959999999,31.4543818,0</coordinates>
			</Point>
		</Placemark>
		<Placemark>
			<name>Toombs</name>
			<styleUrl>#default020</styleUrl>
			<Point>
				<coordinates>-82.3276764615924,32.20279420048918,0</coordinates>
			</Point>
		</Placemark>
		<Placemark>
			<name>Towns</name>
			<styleUrl>#default020</styleUrl>
			<Point>
				<coordinates>-83.75743064504378,34.94671593323974,0</coordinates>
			</Point>
		</Placemark>
		<Placemark>
			<name>Treutlen</name>
			<styleUrl>#default020</styleUrl>
			<Point>
				<coordinates>-82.59336836809608,32.37716238110053,0</coordinates>
			</Point>
		</Placemark>
		<Placemark>
			<name>Troup</name>
			<styleUrl>#default020</styleUrl>
			<Point>
				<coordinates>-85.03076238977849,33.04041920572397,0</coordinates>
			</Point>
		</Placemark>
		<Placemark>
			<name>Turner</name>
			<styleUrl>#default020</styleUrl>
			<Point>
				<coordinates>-83.65265444597765,31.70803145880508,0</coordinates>
			</Point>
		</Placemark>
		<Placemark>
			<name>Twiggs</name>
			<styleUrl>#default020</styleUrl>
			<Point>
				<coordinates>-83.34564305991712,32.68772282726337,0</coordinates>
			</Point>
		</Placemark>
		<Placemark>
			<name>Union</name>
			<styleUrl>#default020</styleUrl>
			<Point>
				<coordinates>-83.95852459909054,34.87609988536367,0</coordinates>
			</Point>
		</Placemark>
		<Placemark>
			<name>Upson</name>
			<styleUrl>#default020</styleUrl>
			<Point>
				<coordinates>-84.32679099600944,32.88750314235114,0</coordinates>
			</Point>
		</Placemark>
		<Placemark>
			<name>Walker</name>
			<styleUrl>#default020</styleUrl>
			<Point>
				<coordinates>-85.2805408,34.7043654,0</coordinates>
			</Point>
		</Placemark>
		<Placemark>
			<name>Walton</name>
			<styleUrl>#default020</styleUrl>
			<Point>
				<coordinates>-83.6962017,33.7972835,0</coordinates>
			</Point>
		</Placemark>
		<Placemark>
			<name>Walton (old)</name>
			<LookAt>
				<longitude>-83.71248734410148</longitude>
				<latitude>33.79431178235811</latitude>
				<altitude>0</altitude>
				<heading>-0.009058452834120476</heading>
				<tilt>0</tilt>
				<range>263.1960525414239</range>
				<gx:altitudeMode>relativeToSeaFloor</gx:altitudeMode>
			</LookAt>
			<styleUrl>#default020</styleUrl>
			<Point>
				<gx:drawOrder>1</gx:drawOrder>
				<coordinates>-83.71251388828607,33.79453086388217,0</coordinates>
			</Point>
		</Placemark>
		<Placemark>
			<name>Ware</name>
			<styleUrl>#default020</styleUrl>
			<Point>
				<coordinates>-82.3552246376729,31.2143572570719,0</coordinates>
			</Point>
		</Placemark>
		<Placemark>
			<name>Warren</name>
			<styleUrl>#default020</styleUrl>
			<Point>
				<coordinates>-82.6623826,33.4067029,0</coordinates>
			</Point>
		</Placemark>
		<Placemark>
			<name>Washington</name>
			<styleUrl>#default020</styleUrl>
			<Point>
				<coordinates>-82.81160149999999,32.983497,0</coordinates>
			</Point>
		</Placemark>
		<Placemark>
			<name>Wayne</name>
			<styleUrl>#default020</styleUrl>
			<Point>
				<coordinates>-81.8799542,31.6041309,0</coordinates>
			</Point>
		</Placemark>
		<Placemark>
			<name>Webster</name>
			<styleUrl>#default020</styleUrl>
			<Point>
				<coordinates>-84.5370882468934,32.06636849771898,0</coordinates>
			</Point>
		</Placemark>
		<Placemark>
			<name>Wheeler</name>
			<styleUrl>#default020</styleUrl>
			<Point>
				<coordinates>-82.782323640559,32.14811448175077,0</coordinates>
			</Point>
		</Placemark>
		<Placemark>
			<name>White</name>
			<styleUrl>#default020</styleUrl>
			<Point>
				<coordinates>-83.76284635244397,34.59582959339893,0</coordinates>
			</Point>
		</Placemark>
		<Placemark>
			<name>White (old)</name>
			<LookAt>
				<longitude>-83.76283966479618</longitude>
				<latitude>34.59637410095204</latitude>
				<altitude>0</altitude>
				<heading>0.0002446442986261065</heading>
				<tilt>0</tilt>
				<range>272.0742826876609</range>
				<gx:altitudeMode>relativeToSeaFloor</gx:altitudeMode>
			</LookAt>
			<styleUrl>#default020</styleUrl>
			<Point>
				<gx:drawOrder>1</gx:drawOrder>
				<coordinates>-83.76325462464123,34.59706317961812,0</coordinates>
			</Point>
		</Placemark>
		<Placemark>
			<name>Whitfield</name>
			<styleUrl>#default020</styleUrl>
			<Point>
				<coordinates>-84.97129489999999,34.7724988,0</coordinates>
			</Point>
		</Placemark>
		<Placemark>
			<name>Wilcox</name>
			<styleUrl>#default020</styleUrl>
			<Point>
				<coordinates>-83.30653649999999,31.9926045,0</coordinates>
			</Point>
		</Placemark>
		<Placemark>
			<name>Wilkes</name>
			<styleUrl>#default020</styleUrl>
			<Point>
				<coordinates>-82.7390394,33.7382247,0</coordinates>
			</Point>
		</Placemark>
		<Placemark>
			<name>Wilkinson</name>
			<styleUrl>#default020</styleUrl>
			<Point>
				<coordinates>-83.1739491,32.8106676,0</coordinates>
			</Point>
		</Placemark>
		<Placemark>
			<name>Worth</name>
			<styleUrl>#default020</styleUrl>
			<Point>
				<coordinates>-83.83604000000001,31.5279487,0</coordinates>
			</Point>
		</Placemark>
	</Document>
	<Document>
		<name>NH</name>
		<Style id="default5">
			<IconStyle>
				<scale>1.2</scale>
				<Icon>
					<href>http://maps.google.com/mapfiles/kml/shapes/placemark_circle.png</href>
				</Icon>
			</IconStyle>
		</Style>
		<Style id="default4">
			<IconStyle>
				<scale>1.2</scale>
				<Icon>
					<href>http://maps.google.com/mapfiles/kml/shapes/placemark_circle.png</href>
				</Icon>
			</IconStyle>
		</Style>
		<StyleMap id="default030">
			<Pair>
				<key>normal</key>
				<styleUrl>#default4</styleUrl>
			</Pair>
			<Pair>
				<key>highlight</key>
				<styleUrl>#hl30</styleUrl>
			</Pair>
		</StyleMap>
		<Style id="hl3">
			<IconStyle>
				<scale>1.2</scale>
				<Icon>
					<href>http://maps.google.com/mapfiles/kml/shapes/placemark_circle_highlight.png</href>
				</Icon>
			</IconStyle>
		</Style>
		<Style id="hl30">
			<IconStyle>
				<scale>1.2</scale>
				<Icon>
					<href>http://maps.google.com/mapfiles/kml/shapes/placemark_circle_highlight.png</href>
				</Icon>
			</IconStyle>
		</Style>
		<StyleMap id="default03">
			<Pair>
				<key>normal</key>
				<styleUrl>#default5</styleUrl>
			</Pair>
			<Pair>
				<key>highlight</key>
				<styleUrl>#hl3</styleUrl>
			</Pair>
		</StyleMap>
		<Placemark>
			<name>Belknap (1)</name>
			<LookAt>
				<longitude>-71.46968120299617</longitude>
				<latitude>43.52400007242802</latitude>
				<altitude>0</altitude>
				<heading>-0.0001158986632746002</heading>
				<tilt>0</tilt>
				<range>324.0347864370892</range>
				<gx:altitudeMode>relativeToSeaFloor</gx:altitudeMode>
			</LookAt>
			<styleUrl>#default03</styleUrl>
			<Point>
				<gx:drawOrder>1</gx:drawOrder>
				<coordinates>-71.46940414826739,43.52464495063965,0</coordinates>
			</Point>
		</Placemark>
		<Placemark>
			<name>Belknap (2)</name>
			<styleUrl>#default03</styleUrl>
			<Point>
				<coordinates>-71.4695129,43.52367289999999,0</coordinates>
			</Point>
		</Placemark>
		<Placemark>
			<name>Carroll</name>
			<styleUrl>#default03</styleUrl>
			<Point>
				<coordinates>-71.13852416988959,43.68615429307067,0</coordinates>
			</Point>
		</Placemark>
		<Placemark>
			<name>Carroll (old)</name>
			<LookAt>
				<longitude>-71.11723724693469</longitude>
				<latitude>43.68488651782035</latitude>
				<altitude>0</altitude>
				<heading>0.05724320363230793</heading>
				<tilt>0</tilt>
				<range>441.0109823656084</range>
				<gx:altitudeMode>relativeToSeaFloor</gx:altitudeMode>
			</LookAt>
			<styleUrl>#default03</styleUrl>
			<Point>
				<gx:drawOrder>1</gx:drawOrder>
				<coordinates>-71.11728068789563,43.68505829375577,0</coordinates>
			</Point>
		</Placemark>
		<Placemark>
			<name>Cheshire</name>
			<styleUrl>#default030</styleUrl>
			<Point>
				<coordinates>-72.28203929999999,42.93359219999999,0</coordinates>
			</Point>
		</Placemark>
		<Placemark>
			<name>Coos</name>
			<styleUrl>#default030</styleUrl>
			<Point>
				<coordinates>-71.57190349999999,44.4910339,0</coordinates>
			</Point>
		</Placemark>
		<Placemark>
			<name>Grafton</name>
			<styleUrl>#default030</styleUrl>
			<Point>
				<coordinates>-72.0422114,44.11280010000001,0</coordinates>
			</Point>
		</Placemark>
		<Placemark>
			<name>Hillsborough</name>
			<styleUrl>#default030</styleUrl>
			<Point>
				<coordinates>-71.4627893,42.7602562,0</coordinates>
			</Point>
		</Placemark>
		<Placemark>
			<name>Merrimack</name>
			<styleUrl>#default030</styleUrl>
			<Point>
				<coordinates>-71.53815879999999,43.2102248,0</coordinates>
			</Point>
		</Placemark>
		<Placemark>
			<name>Rockingham</name>
			<styleUrl>#default030</styleUrl>
			<Point>
				<coordinates>-71.0645049,42.95984180000001,0</coordinates>
			</Point>
		</Placemark>
		<Placemark>
			<name>Strafford</name>
			<styleUrl>#default030</styleUrl>
			<Point>
				<coordinates>-70.93837809999999,43.22038190000001,0</coordinates>
			</Point>
		</Placemark>
		<Placemark>
			<name>Sullivan</name>
			<styleUrl>#default030</styleUrl>
			<Point>
				<coordinates>-72.172932,43.3647161,0</coordinates>
			</Point>
		</Placemark>
	</Document>
	<Document>
		<name>CO</name>
		<Style id="default6">
			<IconStyle>
				<scale>1.2</scale>
				<Icon>
					<href>http://maps.google.com/mapfiles/kml/shapes/placemark_circle.png</href>
				</Icon>
			</IconStyle>
		</Style>
		<Style id="hl5">
			<IconStyle>
				<scale>1.2</scale>
				<Icon>
					<href>http://maps.google.com/mapfiles/kml/shapes/placemark_circle_highlight.png</href>
				</Icon>
			</IconStyle>
		</Style>
		<StyleMap id="default05">
			<Pair>
				<key>normal</key>
				<styleUrl>#default6</styleUrl>
			</Pair>
			<Pair>
				<key>highlight</key>
				<styleUrl>#hl5</styleUrl>
			</Pair>
		</StyleMap>
		<Placemark>
			<name>Adams</name>
			<styleUrl>#default05</styleUrl>
			<Point>
				<coordinates>-104.7609489,39.9696179,0</coordinates>
			</Point>
		</Placemark>
		<Placemark>
			<name>Alamosa</name>
			<styleUrl>#default05</styleUrl>
			<Point>
				<coordinates>-105.8630349,37.4695797,0</coordinates>
			</Point>
		</Placemark>
		<Placemark>
			<name>Arapahoe</name>
			<styleUrl>#default05</styleUrl>
			<Point>
				<coordinates>-104.8316194,39.5824287,0</coordinates>
			</Point>
		</Placemark>
		<Placemark>
			<name>Archuleta</name>
			<styleUrl>#default05</styleUrl>
			<Point>
				<coordinates>-107.0114759,37.2662156,0</coordinates>
			</Point>
		</Placemark>
		<Placemark>
			<name>Baca</name>
			<styleUrl>#default05</styleUrl>
			<Point>
				<coordinates>-102.6166663,37.4067349,0</coordinates>
			</Point>
		</Placemark>
		<Placemark>
			<name>Bent</name>
			<styleUrl>#default05</styleUrl>
			<Point>
				<coordinates>-103.2200486,38.065603,0</coordinates>
			</Point>
		</Placemark>
		<Placemark>
			<name>Boulder</name>
			<styleUrl>#default05</styleUrl>
			<Point>
				<coordinates>-105.288998,40.01441699999999,0</coordinates>
			</Point>
		</Placemark>
		<Placemark>
			<name>Broomfield</name>
			<styleUrl>#default05</styleUrl>
			<Point>
				<coordinates>-105.0682422,39.9207028,0</coordinates>
			</Point>
		</Placemark>
		<Placemark>
			<name>Chaffee</name>
			<styleUrl>#default05</styleUrl>
			<Point>
				<coordinates>-105.9985278,38.5382553,0</coordinates>
			</Point>
		</Placemark>
		<Placemark>
			<name>Cheyenne</name>
			<styleUrl>#default05</styleUrl>
			<Point>
				<coordinates>-102.3489784,38.8204435,0</coordinates>
			</Point>
		</Placemark>
		<Placemark>
			<name>Clear Creek</name>
			<styleUrl>#default05</styleUrl>
			<Point>
				<coordinates>-105.6986619,39.70661189999999,0</coordinates>
			</Point>
		</Placemark>
		<Placemark>
			<name>Conejos</name>
			<styleUrl>#default05</styleUrl>
			<Point>
				<coordinates>-106.0199096,37.0892109,0</coordinates>
			</Point>
		</Placemark>
		<Placemark>
			<name>Costilla</name>
			<styleUrl>#default05</styleUrl>
			<Point>
				<coordinates>-105.4251401,37.199587,0</coordinates>
			</Point>
		</Placemark>
		<Placemark>
			<name>Crowley</name>
			<styleUrl>#default05</styleUrl>
			<Point>
				<coordinates>-103.7564988,38.22168990000001,0</coordinates>
			</Point>
		</Placemark>
		<Placemark>
			<name>Custer</name>
			<styleUrl>#default05</styleUrl>
			<Point>
				<coordinates>-105.463499,38.1345121,0</coordinates>
			</Point>
		</Placemark>
		<Placemark>
			<name>Delta</name>
			<styleUrl>#default05</styleUrl>
			<Point>
				<coordinates>-108.0725493,38.7400242,0</coordinates>
			</Point>
		</Placemark>
		<Placemark>
			<name>Denver</name>
			<styleUrl>#default05</styleUrl>
			<Point>
				<coordinates>-104.9909879,39.7392327,0</coordinates>
			</Point>
		</Placemark>
		<Placemark>
			<name>Dolores</name>
			<styleUrl>#default05</styleUrl>
			<Point>
				<coordinates>-108.9041608,37.76536869999999,0</coordinates>
			</Point>
		</Placemark>
		<Placemark>
			<name>Douglas</name>
			<styleUrl>#default05</styleUrl>
			<Point>
				<coordinates>-104.864416,39.4033668,0</coordinates>
			</Point>
		</Placemark>
		<Placemark>
			<name>Eagle</name>
			<styleUrl>#default05</styleUrl>
			<Point>
				<coordinates>-106.8184187,39.66316810000001,0</coordinates>
			</Point>
		</Placemark>
		<Placemark>
			<name>El Paso</name>
			<styleUrl>#default05</styleUrl>
			<Point>
				<coordinates>-104.8241049,38.83043289999999,0</coordinates>
			</Point>
		</Placemark>
		<Placemark>
			<name>Elbert</name>
			<styleUrl>#default05</styleUrl>
			<Point>
				<coordinates>-104.4638692,39.3421946,0</coordinates>
			</Point>
		</Placemark>
		<Placemark>
			<name>Fremont</name>
			<styleUrl>#default05</styleUrl>
			<Point>
				<coordinates>-105.1820273,38.4463068,0</coordinates>
			</Point>
		</Placemark>
		<Placemark>
			<name>Garfield</name>
			<styleUrl>#default05</styleUrl>
			<Point>
				<coordinates>-107.326405,39.5472481,0</coordinates>
			</Point>
		</Placemark>
		<Placemark>
			<name>Gilpin</name>
			<styleUrl>#default05</styleUrl>
			<Point>
				<coordinates>-105.4816249,39.8391287,0</coordinates>
			</Point>
		</Placemark>
		<Placemark>
			<name>Grand</name>
			<styleUrl>#default05</styleUrl>
			<Point>
				<coordinates>-106.103976,40.0725222,0</coordinates>
			</Point>
		</Placemark>
		<Placemark>
			<name>Gunnison</name>
			<styleUrl>#default05</styleUrl>
			<Point>
				<coordinates>-106.9249657,38.5461184,0</coordinates>
			</Point>
		</Placemark>
		<Placemark>
			<name>Hinsdale</name>
			<styleUrl>#default05</styleUrl>
			<Point>
				<coordinates>-107.3148747,38.02847870000001,0</coordinates>
			</Point>
		</Placemark>
		<Placemark>
			<name>Huerfano</name>
			<styleUrl>#default05</styleUrl>
			<Point>
				<coordinates>-104.7823019,37.6265129,0</coordinates>
			</Point>
		</Placemark>
		<Placemark>
			<name>Jackson</name>
			<styleUrl>#default05</styleUrl>
			<Point>
				<coordinates>-106.2833333,40.7315328,0</coordinates>
			</Point>
		</Placemark>
		<Placemark>
			<name>Jefferson</name>
			<styleUrl>#default05</styleUrl>
			<Point>
				<coordinates>-105.2015408,39.72820879999999,0</coordinates>
			</Point>
		</Placemark>
		<Placemark>
			<name>Kiowa</name>
			<styleUrl>#default05</styleUrl>
			<Point>
				<coordinates>-102.7802933,38.47997449999999,0</coordinates>
			</Point>
		</Placemark>
		<Placemark>
			<name>Kit Carson</name>
			<styleUrl>#default05</styleUrl>
			<Point>
				<coordinates>-102.2706867,39.3028876,0</coordinates>
			</Point>
		</Placemark>
		<Placemark>
			<name>La Plata</name>
			<styleUrl>#default05</styleUrl>
			<Point>
				<coordinates>-107.8784411,37.2747423,0</coordinates>
			</Point>
		</Placemark>
		<Placemark>
			<name>Lake</name>
			<styleUrl>#default05</styleUrl>
			<Point>
				<coordinates>-106.2922284,39.2481488,0</coordinates>
			</Point>
		</Placemark>
		<Placemark>
			<name>Larimer</name>
			<styleUrl>#default05</styleUrl>
			<Point>
				<coordinates>-105.079277,40.58853999999999,0</coordinates>
			</Point>
		</Placemark>
		<Placemark>
			<name>Las Animas</name>
			<styleUrl>#default05</styleUrl>
			<Point>
				<coordinates>-104.5025434,37.1686104,0</coordinates>
			</Point>
		</Placemark>
		<Placemark>
			<name>Lincoln</name>
			<styleUrl>#default05</styleUrl>
			<Point>
				<coordinates>-103.4725593,39.13252299999999,0</coordinates>
			</Point>
		</Placemark>
		<Placemark>
			<name>Logan</name>
			<styleUrl>#default05</styleUrl>
			<Point>
				<coordinates>-103.1785773,40.6223169,0</coordinates>
			</Point>
		</Placemark>
		<Placemark>
			<name>Mesa</name>
			<styleUrl>#default05</styleUrl>
			<Point>
				<coordinates>-108.5725605,39.0679078,0</coordinates>
			</Point>
		</Placemark>
		<Placemark>
			<name>Mineral</name>
			<styleUrl>#default05</styleUrl>
			<Point>
				<coordinates>-106.9273162,37.8541518,0</coordinates>
			</Point>
		</Placemark>
		<Placemark>
			<name>Moffat</name>
			<styleUrl>#default05</styleUrl>
			<Point>
				<coordinates>-107.5503886,40.5144657,0</coordinates>
			</Point>
		</Placemark>
		<Placemark>
			<name>Montezuma</name>
			<styleUrl>#default05</styleUrl>
			<Point>
				<coordinates>-108.573526,37.3553418,0</coordinates>
			</Point>
		</Placemark>
		<Placemark>
			<name>Montrose</name>
			<styleUrl>#default05</styleUrl>
			<Point>
				<coordinates>-107.8907341,38.48832660000001,0</coordinates>
			</Point>
		</Placemark>
		<Placemark>
			<name>Morgan</name>
			<styleUrl>#default05</styleUrl>
			<Point>
				<coordinates>-103.7892047,40.2521082,0</coordinates>
			</Point>
		</Placemark>
		<Placemark>
			<name>Otero</name>
			<styleUrl>#default05</styleUrl>
			<Point>
				<coordinates>-103.5432751,37.9859693,0</coordinates>
			</Point>
		</Placemark>
		<Placemark>
			<name>Ouray</name>
			<styleUrl>#default05</styleUrl>
			<Point>
				<coordinates>-107.6698351,38.022523,0</coordinates>
			</Point>
		</Placemark>
		<Placemark>
			<name>Park</name>
			<styleUrl>#default05</styleUrl>
			<Point>
				<coordinates>-106.0026092,39.2266449,0</coordinates>
			</Point>
		</Placemark>
		<Placemark>
			<name>Phillips</name>
			<styleUrl>#default05</styleUrl>
			<Point>
				<coordinates>-102.3015151,40.5840302,0</coordinates>
			</Point>
		</Placemark>
		<Placemark>
			<name>Pitkin</name>
			<styleUrl>#default05</styleUrl>
			<Point>
				<coordinates>-106.8174901,39.1906551,0</coordinates>
			</Point>
		</Placemark>
		<Placemark>
			<name>Prowers</name>
			<styleUrl>#default05</styleUrl>
			<Point>
				<coordinates>-102.6183745,38.08660689999999,0</coordinates>
			</Point>
		</Placemark>
		<Placemark>
			<name>Pueblo</name>
			<styleUrl>#default05</styleUrl>
			<Point>
				<coordinates>-104.6156573,38.2713641,0</coordinates>
			</Point>
		</Placemark>
		<Placemark>
			<name>Rio Blanco</name>
			<styleUrl>#default05</styleUrl>
			<Point>
				<coordinates>-107.9130652,40.03746599999999,0</coordinates>
			</Point>
		</Placemark>
		<Placemark>
			<name>Rio Grande</name>
			<styleUrl>#default05</styleUrl>
			<Point>
				<coordinates>-106.3497361,37.6771782,0</coordinates>
			</Point>
		</Placemark>
		<Placemark>
			<name>Routt</name>
			<styleUrl>#default05</styleUrl>
			<Point>
				<coordinates>-106.8602278,40.5010125,0</coordinates>
			</Point>
		</Placemark>
		<Placemark>
			<name>Saguache</name>
			<styleUrl>#default05</styleUrl>
			<Point>
				<coordinates>-106.1373532,38.0853015,0</coordinates>
			</Point>
		</Placemark>
		<Placemark>
			<name>San Juan</name>
			<styleUrl>#default05</styleUrl>
			<Point>
				<coordinates>-107.6616861,37.8143578,0</coordinates>
			</Point>
		</Placemark>
		<Placemark>
			<name>San Miguel</name>
			<styleUrl>#default05</styleUrl>
			<Point>
				<coordinates>-107.812887,37.937994,0</coordinates>
			</Point>
		</Placemark>
		<Placemark>
			<name>Sedgwick</name>
			<styleUrl>#default05</styleUrl>
			<Point>
				<coordinates>-102.2650504,40.98759260000001,0</coordinates>
			</Point>
		</Placemark>
		<Placemark>
			<name>Summit</name>
			<styleUrl>#default05</styleUrl>
			<Point>
				<coordinates>-106.0471794,39.4913439,0</coordinates>
			</Point>
		</Placemark>
		<Placemark>
			<name>Teller</name>
			<styleUrl>#default05</styleUrl>
			<Point>
				<coordinates>-105.1806168,38.7467313,0</coordinates>
			</Point>
		</Placemark>
		<Placemark>
			<name>Washington</name>
			<styleUrl>#default05</styleUrl>
			<Point>
				<coordinates>-103.1921541,40.1580426,0</coordinates>
			</Point>
		</Placemark>
		<Placemark>
			<name>Weld</name>
			<styleUrl>#default05</styleUrl>
			<Point>
				<coordinates>-104.6939536,40.422861,0</coordinates>
			</Point>
		</Placemark>
		<Placemark>
			<name>Yuma</name>
			<styleUrl>#default05</styleUrl>
			<Point>
				<coordinates>-102.2206072,40.07882499999999,0</coordinates>
			</Point>
		</Placemark>
	</Document>
	<Document>
		<name>ME</name>
		<StyleMap id="default04">
			<Pair>
				<key>normal</key>
				<styleUrl>#default7</styleUrl>
			</Pair>
			<Pair>
				<key>highlight</key>
				<styleUrl>#hl4</styleUrl>
			</Pair>
		</StyleMap>
		<Style id="default7">
			<IconStyle>
				<scale>1.2</scale>
				<Icon>
					<href>http://maps.google.com/mapfiles/kml/shapes/placemark_circle.png</href>
				</Icon>
			</IconStyle>
		</Style>
		<Style id="hl4">
			<IconStyle>
				<scale>1.2</scale>
				<Icon>
					<href>http://maps.google.com/mapfiles/kml/shapes/placemark_circle_highlight.png</href>
				</Icon>
			</IconStyle>
		</Style>
		<Placemark>
			<name>Androscoggin</name>
			<styleUrl>#default04</styleUrl>
			<Point>
				<coordinates>-70.22683438799598,44.09777461094935,0</coordinates>
			</Point>
		</Placemark>
		<Placemark>
			<name>Aroostook</name>
			<styleUrl>#default04</styleUrl>
			<Point>
				<coordinates>-68.01896947699208,46.85954868532185,0</coordinates>
			</Point>
		</Placemark>
		<Placemark>
			<name>Cumberland</name>
			<styleUrl>#default04</styleUrl>
			<Point>
				<coordinates>-70.25420232855534,43.65930232534998,0</coordinates>
			</Point>
		</Placemark>
		<Placemark>
			<name>Franklin</name>
			<styleUrl>#default04</styleUrl>
			<Point>
				<coordinates>-70.15175249933179,44.67156108113983,0</coordinates>
			</Point>
		</Placemark>
		<Placemark>
			<name>Hancock</name>
			<styleUrl>#default04</styleUrl>
			<Point>
				<coordinates>-68.42542334280648,44.54276049755972,0</coordinates>
			</Point>
		</Placemark>
		<Placemark>
			<name>Kennebec</name>
			<styleUrl>#default04</styleUrl>
			<Point>
				<coordinates>-69.77724003804376,44.31475370901857,0</coordinates>
			</Point>
		</Placemark>
		<Placemark>
			<name>Knox</name>
			<styleUrl>#default04</styleUrl>
			<Point>
				<coordinates>-69.11169811088267,44.10397685684814,0</coordinates>
			</Point>
		</Placemark>
		<Placemark>
			<name>Lincoln</name>
			<styleUrl>#default04</styleUrl>
			<Point>
				<coordinates>-69.6679571055567,44.00425412853473,0</coordinates>
			</Point>
		</Placemark>
		<Placemark>
			<name>Oxford</name>
			<styleUrl>#default04</styleUrl>
			<Point>
				<coordinates>-70.51812944347245,44.22113946801105,0</coordinates>
			</Point>
		</Placemark>
		<Placemark>
			<name>Penobscot</name>
			<styleUrl>#default04</styleUrl>
			<Point>
				<coordinates>-68.77302148436488,44.80181315767007,0</coordinates>
			</Point>
		</Placemark>
		<Placemark>
			<name>Piscataquis</name>
			<styleUrl>#default04</styleUrl>
			<Point>
				<coordinates>-69.22431093873767,45.18305459887351,0</coordinates>
			</Point>
		</Placemark>
		<Placemark>
			<name>Sagadahoc</name>
			<styleUrl>#default04</styleUrl>
			<Point>
				<coordinates>-69.82016206453525,43.91154894223113,0</coordinates>
			</Point>
		</Placemark>
		<Placemark>
			<name>Somerset</name>
			<styleUrl>#default04</styleUrl>
			<Point>
				<coordinates>-69.71791880932329,44.76732245310569,0</coordinates>
			</Point>
		</Placemark>
		<Placemark>
			<name>Waldo</name>
			<styleUrl>#default04</styleUrl>
			<Point>
				<coordinates>-69.00791551144795,44.42620829340374,0</coordinates>
			</Point>
		</Placemark>
		<Placemark>
			<name>Washington</name>
			<styleUrl>#default04</styleUrl>
			<Point>
				<coordinates>-67.45946052796106,44.71602487288591,0</coordinates>
			</Point>
		</Placemark>
		<Placemark>
			<name>York</name>
			<LookAt>
				<longitude>-70.71399321204497</longitude>
				<latitude>43.47420594491497</latitude>
				<altitude>0</altitude>
				<heading>0.001496762732589737</heading>
				<tilt>0</tilt>
				<range>971.0733661534053</range>
				<gx:altitudeMode>relativeToSeaFloor</gx:altitudeMode>
			</LookAt>
			<styleUrl>#default04</styleUrl>
			<Point>
				<gx:drawOrder>1</gx:drawOrder>
				<coordinates>-70.71459168112109,43.47442745227534,0</coordinates>
			</Point>
		</Placemark>
	</Document>
	<Document>
		<name>SC</name>
		<Style id="default70">
			<IconStyle>
				<scale>1.2</scale>
				<Icon>
					<href>http://maps.google.com/mapfiles/kml/shapes/placemark_circle.png</href>
				</Icon>
			</IconStyle>
		</Style>
		<StyleMap id="default06">
			<Pair>
				<key>normal</key>
				<styleUrl>#default70</styleUrl>
			</Pair>
			<Pair>
				<key>highlight</key>
				<styleUrl>#hl6</styleUrl>
			</Pair>
		</StyleMap>
		<Style id="hl6">
			<IconStyle>
				<scale>1.2</scale>
				<Icon>
					<href>http://maps.google.com/mapfiles/kml/shapes/placemark_circle_highlight.png</href>
				</Icon>
			</IconStyle>
		</Style>
		<Placemark>
			<name>Abbeville</name>
			<styleUrl>#default06</styleUrl>
			<Point>
				<coordinates>-82.3781393,34.1777686,0</coordinates>
			</Point>
		</Placemark>
		<Placemark>
			<name>Aiken</name>
			<styleUrl>#default06</styleUrl>
			<Point>
				<coordinates>-81.68274579999999,33.5321285,0</coordinates>
			</Point>
		</Placemark>
		<Placemark>
			<name>Allendale</name>
			<styleUrl>#default06</styleUrl>
			<Point>
				<coordinates>-81.3066015,33.0134339,0</coordinates>
			</Point>
		</Placemark>
		<Placemark>
			<name>Anderson</name>
			<styleUrl>#default06</styleUrl>
			<Point>
				<coordinates>-82.650842,34.5030626,0</coordinates>
			</Point>
		</Placemark>
		<Placemark>
			<name>Bamberg</name>
			<styleUrl>#default06</styleUrl>
			<Point>
				<coordinates>-81.03400160000001,33.2979386,0</coordinates>
			</Point>
		</Placemark>
		<Placemark>
			<name>Barnwell</name>
			<styleUrl>#default06</styleUrl>
			<Point>
				<coordinates>-81.36734779999999,33.24314719999999,0</coordinates>
			</Point>
		</Placemark>
		<Placemark>
			<name>Beaufort</name>
			<styleUrl>#default06</styleUrl>
			<Point>
				<coordinates>-80.6868145,32.4380696,0</coordinates>
			</Point>
		</Placemark>
		<Placemark>
			<name>Berkeley</name>
			<styleUrl>#default06</styleUrl>
			<Point>
				<coordinates>-80.016924,33.2004429,0</coordinates>
			</Point>
		</Placemark>
		<Placemark>
			<name>Calhoun</name>
			<styleUrl>#default06</styleUrl>
			<Point>
				<coordinates>-80.78534570000001,33.65130370000001,0</coordinates>
			</Point>
		</Placemark>
		<Placemark>
			<name>Charleston</name>
			<styleUrl>#default06</styleUrl>
			<Point>
				<coordinates>-79.9320104,32.7768041,0</coordinates>
			</Point>
		</Placemark>
		<Placemark>
			<name>Cherokee</name>
			<styleUrl>#default06</styleUrl>
			<Point>
				<coordinates>-81.64785739999999,35.0729443,0</coordinates>
			</Point>
		</Placemark>
		<Placemark>
			<name>Chester</name>
			<styleUrl>#default06</styleUrl>
			<Point>
				<coordinates>-81.2310076,34.7081824,0</coordinates>
			</Point>
		</Placemark>
		<Placemark>
			<name>Chesterfield</name>
			<styleUrl>#default06</styleUrl>
			<Point>
				<coordinates>-80.08906,34.73661349999999,0</coordinates>
			</Point>
		</Placemark>
		<Placemark>
			<name>Clarendon</name>
			<styleUrl>#default06</styleUrl>
			<Point>
				<coordinates>-80.2119695,33.6940676,0</coordinates>
			</Point>
		</Placemark>
		<Placemark>
			<name>Colleton</name>
			<styleUrl>#default06</styleUrl>
			<Point>
				<coordinates>-80.6674304,32.9038495,0</coordinates>
			</Point>
		</Placemark>
		<Placemark>
			<name>Darlington</name>
			<styleUrl>#default06</styleUrl>
			<Point>
				<coordinates>-79.9250368,34.29962379999999,0</coordinates>
			</Point>
		</Placemark>
		<Placemark>
			<name>Dillon</name>
			<styleUrl>#default06</styleUrl>
			<Point>
				<coordinates>-79.38124309999999,34.4079746,0</coordinates>
			</Point>
		</Placemark>
		<Placemark>
			<name>Dorchester</name>
			<styleUrl>#default06</styleUrl>
			<Point>
				<coordinates>-80.5590807,33.1826227,0</coordinates>
			</Point>
		</Placemark>
		<Placemark>
			<name>Edgefield</name>
			<styleUrl>#default06</styleUrl>
			<Point>
				<coordinates>-81.9299086,33.7892953,0</coordinates>
			</Point>
		</Placemark>
		<Placemark>
			<name>Fairfield</name>
			<styleUrl>#default06</styleUrl>
			<Point>
				<coordinates>-81.0864527,34.3799751,0</coordinates>
			</Point>
		</Placemark>
		<Placemark>
			<name>Florence</name>
			<styleUrl>#default06</styleUrl>
			<Point>
				<coordinates>-79.76774810000001,34.1986878,0</coordinates>
			</Point>
		</Placemark>
		<Placemark>
			<name>Georgetown</name>
			<styleUrl>#default06</styleUrl>
			<Point>
				<coordinates>-79.2819404,33.3667574,0</coordinates>
			</Point>
		</Placemark>
		<Placemark>
			<name>Greenville</name>
			<styleUrl>#default06</styleUrl>
			<Point>
				<coordinates>-82.3951469,34.8518332,0</coordinates>
			</Point>
		</Placemark>
		<Placemark>
			<name>Greenwood</name>
			<styleUrl>#default06</styleUrl>
			<Point>
				<coordinates>-82.16252969999999,34.1880724,0</coordinates>
			</Point>
		</Placemark>
		<Placemark>
			<name>Hampton</name>
			<styleUrl>#default06</styleUrl>
			<Point>
				<coordinates>-81.10920829999999,32.8660152,0</coordinates>
			</Point>
		</Placemark>
		<Placemark>
			<name>Horry</name>
			<styleUrl>#default06</styleUrl>
			<Point>
				<coordinates>-79.04969989999999,33.9127922,0</coordinates>
			</Point>
		</Placemark>
		<Placemark>
			<name>Jasper</name>
			<styleUrl>#default06</styleUrl>
			<Point>
				<coordinates>-80.9848398,32.4839052,0</coordinates>
			</Point>
		</Placemark>
		<Placemark>
			<name>Kershaw</name>
			<styleUrl>#default06</styleUrl>
			<Point>
				<coordinates>-80.608481,34.247342,0</coordinates>
			</Point>
		</Placemark>
		<Placemark>
			<name>Lancaster</name>
			<styleUrl>#default06</styleUrl>
			<Point>
				<coordinates>-80.77144539999999,34.7205762,0</coordinates>
			</Point>
		</Placemark>
		<Placemark>
			<name>Laurens</name>
			<styleUrl>#default06</styleUrl>
			<Point>
				<coordinates>-82.01966349999999,34.5071252,0</coordinates>
			</Point>
		</Placemark>
		<Placemark>
			<name>Lee</name>
			<styleUrl>#default06</styleUrl>
			<Point>
				<coordinates>-80.24928349999999,34.21705949999999,0</coordinates>
			</Point>
		</Placemark>
		<Placemark>
			<name>Lexington</name>
			<styleUrl>#default06</styleUrl>
			<Point>
				<coordinates>-81.23529809999999,33.9802984,0</coordinates>
			</Point>
		</Placemark>
		<Placemark>
			<name>Marion</name>
			<styleUrl>#default06</styleUrl>
			<Point>
				<coordinates>-79.40064339999999,34.1788645,0</coordinates>
			</Point>
		</Placemark>
		<Placemark>
			<name>Marlboro</name>
			<styleUrl>#default06</styleUrl>
			<Point>
				<coordinates>-79.6847133,34.616995,0</coordinates>
			</Point>
		</Placemark>
		<Placemark>
			<name>McCormick</name>
			<styleUrl>#default06</styleUrl>
			<Point>
				<coordinates>-82.2946474,33.9105171,0</coordinates>
			</Point>
		</Placemark>
		<Placemark>
			<name>Newberry</name>
			<styleUrl>#default06</styleUrl>
			<Point>
				<coordinates>-81.62013929999999,34.2759226,0</coordinates>
			</Point>
		</Placemark>
		<Placemark>
			<name>Oconee</name>
			<styleUrl>#default06</styleUrl>
			<Point>
				<coordinates>-83.06787439999999,34.7650705,0</coordinates>
			</Point>
		</Placemark>
		<Placemark>
			<name>Orangeburg</name>
			<styleUrl>#default06</styleUrl>
			<Point>
				<coordinates>-80.8629267,33.4918855,0</coordinates>
			</Point>
		</Placemark>
		<Placemark>
			<name>Pickens</name>
			<styleUrl>#default06</styleUrl>
			<Point>
				<coordinates>-82.7067826,34.8833401,0</coordinates>
			</Point>
		</Placemark>
		<Placemark>
			<name>Richland</name>
			<styleUrl>#default06</styleUrl>
			<Point>
				<coordinates>-81.0372627,34.0081719,0</coordinates>
			</Point>
		</Placemark>
		<Placemark>
			<name>Saluda</name>
			<styleUrl>#default06</styleUrl>
			<Point>
				<coordinates>-81.77001770000001,34.0021891,0</coordinates>
			</Point>
		</Placemark>
		<Placemark>
			<name>Spartanburg</name>
			<styleUrl>#default06</styleUrl>
			<Point>
				<coordinates>-81.93536189999999,34.9518661,0</coordinates>
			</Point>
		</Placemark>
		<Placemark>
			<name>Sumter</name>
			<styleUrl>#default06</styleUrl>
			<Point>
				<coordinates>-80.34065099999999,33.922623,0</coordinates>
			</Point>
		</Placemark>
		<Placemark>
			<name>Union</name>
			<styleUrl>#default06</styleUrl>
			<Point>
				<coordinates>-81.62537759999999,34.71544240000001,0</coordinates>
			</Point>
		</Placemark>
		<Placemark>
			<name>Williamsburg</name>
			<styleUrl>#default06</styleUrl>
			<Point>
				<coordinates>-79.8322019,33.6614982,0</coordinates>
			</Point>
		</Placemark>
		<Placemark>
			<name>York</name>
			<styleUrl>#default06</styleUrl>
			<Point>
				<coordinates>-81.19683979999999,34.98243309999999,0</coordinates>
			</Point>
		</Placemark>
	</Document>
	<Document>
		<name>WV</name>
		<Style id="default8">
			<IconStyle>
				<scale>1.2</scale>
				<Icon>
					<href>http://maps.google.com/mapfiles/kml/shapes/placemark_circle.png</href>
				</Icon>
			</IconStyle>
		</Style>
		<Style id="hl7">
			<IconStyle>
				<scale>1.2</scale>
				<Icon>
					<href>http://maps.google.com/mapfiles/kml/shapes/placemark_circle_highlight.png</href>
				</Icon>
			</IconStyle>
		</Style>
		<StyleMap id="default07">
			<Pair>
				<key>normal</key>
				<styleUrl>#default8</styleUrl>
			</Pair>
			<Pair>
				<key>highlight</key>
				<styleUrl>#hl7</styleUrl>
			</Pair>
		</StyleMap>
		<Placemark>
			<name>Barbour</name>
			<styleUrl>#default07</styleUrl>
			<Point>
				<coordinates>-80.0392633,39.15250280000001,0</coordinates>
			</Point>
		</Placemark>
		<Placemark>
			<name>Berkeley</name>
			<styleUrl>#default07</styleUrl>
			<Point>
				<coordinates>-77.96853299999999,39.45397920000001,0</coordinates>
			</Point>
		</Placemark>
		<Placemark>
			<name>Boone</name>
			<styleUrl>#default07</styleUrl>
			<Point>
				<coordinates>-81.81886000000002,38.06639,0</coordinates>
			</Point>
		</Placemark>
		<Placemark>
			<name>Braxton</name>
			<styleUrl>#default07</styleUrl>
			<Point>
				<coordinates>-80.70775499999999,38.66455300000001,0</coordinates>
			</Point>
		</Placemark>
		<Placemark>
			<name>Brooke</name>
			<styleUrl>#default07</styleUrl>
			<Point>
				<coordinates>-80.613585,40.269784,0</coordinates>
			</Point>
		</Placemark>
		<Placemark>
			<name>Cabell</name>
			<styleUrl>#default07</styleUrl>
			<Point>
				<coordinates>-82.44618939999999,38.4196792,0</coordinates>
			</Point>
		</Placemark>
		<Placemark>
			<name>Calhoun</name>
			<styleUrl>#default07</styleUrl>
			<Point>
				<coordinates>-81.09566679999999,38.9233965,0</coordinates>
			</Point>
		</Placemark>
		<Placemark>
			<name>Clay</name>
			<styleUrl>#default07</styleUrl>
			<Point>
				<coordinates>-81.08336609999999,38.4602301,0</coordinates>
			</Point>
		</Placemark>
		<Placemark>
			<name>Doddridge</name>
			<styleUrl>#default07</styleUrl>
			<Point>
				<coordinates>-80.7755445,39.2944104,0</coordinates>
			</Point>
		</Placemark>
		<Placemark>
			<name>Fayette</name>
			<styleUrl>#default07</styleUrl>
			<Point>
				<coordinates>-81.1037027,38.0535178,0</coordinates>
			</Point>
		</Placemark>
		<Placemark>
			<name>Gilmer</name>
			<styleUrl>#default07</styleUrl>
			<Point>
				<coordinates>-80.8360637,38.93471340000001,0</coordinates>
			</Point>
		</Placemark>
		<Placemark>
			<name>Grant</name>
			<styleUrl>#default07</styleUrl>
			<Point>
				<coordinates>-79.1232327,38.9962245,0</coordinates>
			</Point>
		</Placemark>
		<Placemark>
			<name>Greenbrier</name>
			<styleUrl>#default07</styleUrl>
			<Point>
				<coordinates>-80.4467734,37.8020405,0</coordinates>
			</Point>
		</Placemark>
		<Placemark>
			<name>Hampshire</name>
			<styleUrl>#default07</styleUrl>
			<Point>
				<coordinates>-78.7566327,39.3414705,0</coordinates>
			</Point>
		</Placemark>
		<Placemark>
			<name>Hancock</name>
			<styleUrl>#default07</styleUrl>
			<Point>
				<coordinates>-80.60829219999999,40.4990601,0</coordinates>
			</Point>
		</Placemark>
		<Placemark>
			<name>Hardy</name>
			<styleUrl>#default07</styleUrl>
			<Point>
				<coordinates>-78.9676795,39.0644226,0</coordinates>
			</Point>
		</Placemark>
		<Placemark>
			<name>Harrison</name>
			<styleUrl>#default07</styleUrl>
			<Point>
				<coordinates>-80.3394062,39.27878500000001,0</coordinates>
			</Point>
		</Placemark>
		<Placemark>
			<name>Jackson</name>
			<styleUrl>#default07</styleUrl>
			<Point>
				<coordinates>-81.7122739,38.8193955,0</coordinates>
			</Point>
		</Placemark>
		<Placemark>
			<name>Jefferson</name>
			<styleUrl>#default07</styleUrl>
			<Point>
				<coordinates>-77.8599735,39.2894761,0</coordinates>
			</Point>
		</Placemark>
		<Placemark>
			<name>Kanawha</name>
			<styleUrl>#default07</styleUrl>
			<Point>
				<coordinates>-81.639034,38.3510564,0</coordinates>
			</Point>
		</Placemark>
		<Placemark>
			<name>Lewis</name>
			<styleUrl>#default07</styleUrl>
			<Point>
				<coordinates>-80.46646699999999,39.035966,0</coordinates>
			</Point>
		</Placemark>
		<Placemark>
			<name>Lincoln</name>
			<styleUrl>#default07</styleUrl>
			<Point>
				<coordinates>-82.105346,38.279324,0</coordinates>
			</Point>
		</Placemark>
		<Placemark>
			<name>Logan</name>
			<styleUrl>#default07</styleUrl>
			<Point>
				<coordinates>-81.9914149,37.84699599999999,0</coordinates>
			</Point>
		</Placemark>
		<Placemark>
			<name>Marion</name>
			<styleUrl>#default07</styleUrl>
			<Point>
				<coordinates>-80.1437796,39.48442780000001,0</coordinates>
			</Point>
		</Placemark>
		<Placemark>
			<name>Marshall</name>
			<styleUrl>#default07</styleUrl>
			<Point>
				<coordinates>-80.7460529,39.9183141,0</coordinates>
			</Point>
		</Placemark>
		<Placemark>
			<name>Mason</name>
			<styleUrl>#default07</styleUrl>
			<Point>
				<coordinates>-82.1377774,38.84423839999999,0</coordinates>
			</Point>
		</Placemark>
		<Placemark>
			<name>McDowell</name>
			<styleUrl>#default07</styleUrl>
			<Point>
				<coordinates>-81.584722,37.4328541,0</coordinates>
			</Point>
		</Placemark>
		<Placemark>
			<name>Mercer</name>
			<styleUrl>#default07</styleUrl>
			<Point>
				<coordinates>-81.10305099999999,37.36556479999999,0</coordinates>
			</Point>
		</Placemark>
		<Placemark>
			<name>Mineral</name>
			<styleUrl>#default07</styleUrl>
			<Point>
				<coordinates>-78.9733368,39.43986779999999,0</coordinates>
			</Point>
		</Placemark>
		<Placemark>
			<name>Mingo</name>
			<styleUrl>#default07</styleUrl>
			<Point>
				<coordinates>-82.2787659,37.6736412,0</coordinates>
			</Point>
		</Placemark>
		<Placemark>
			<name>Monongalia</name>
			<styleUrl>#default07</styleUrl>
			<Point>
				<coordinates>-79.95672370000001,39.62972000000001,0</coordinates>
			</Point>
		</Placemark>
		<Placemark>
			<name>Monroe</name>
			<styleUrl>#default07</styleUrl>
			<Point>
				<coordinates>-80.54328889999999,37.5912059,0</coordinates>
			</Point>
		</Placemark>
		<Placemark>
			<name>Morgan</name>
			<styleUrl>#default07</styleUrl>
			<Point>
				<coordinates>-78.22704730000001,39.6269103,0</coordinates>
			</Point>
		</Placemark>
		<Placemark>
			<name>Nicholas</name>
			<styleUrl>#default07</styleUrl>
			<Point>
				<coordinates>-80.8512676,38.2806258,0</coordinates>
			</Point>
		</Placemark>
		<Placemark>
			<name>Ohio</name>
			<styleUrl>#default07</styleUrl>
			<Point>
				<coordinates>-80.7202346,40.0649152,0</coordinates>
			</Point>
		</Placemark>
		<Placemark>
			<name>Pendleton</name>
			<styleUrl>#default07</styleUrl>
			<Point>
				<coordinates>-79.3311147,38.641679,0</coordinates>
			</Point>
		</Placemark>
		<Placemark>
			<name>Pleasants</name>
			<styleUrl>#default07</styleUrl>
			<Point>
				<coordinates>-81.20446079999999,39.3887891,0</coordinates>
			</Point>
		</Placemark>
		<Placemark>
			<name>Pocahontas</name>
			<styleUrl>#default07</styleUrl>
			<Point>
				<coordinates>-80.0886129,38.2181187,0</coordinates>
			</Point>
		</Placemark>